
[
  {
    "id": "ak-1",
    "name": "University of Uyo Teaching Hospital",
    "address": "Abak Road, Uyo, Akwa Ibom",
    "coordinates": { "lat": 5.029, "lng": 7.907 },
    "type": "Hospital",
    "services": ["Emergency Care", "Specialist Consultation", "Surgery", "Maternity", "Diagnostics", "Pharmacy"],
    "phone": "08029990001",
    "openingHours": "24/7",
    "imageUrl": "https://placehold.co/600x400.png",
    "dataAiHint": "university hospital"
  },
  {
    "id": "ak-2",
    "name": "Ibom Specialist Hospital",
    "address": "Ikot Ekpene Road, Uyo, Akwa Ibom",
    "coordinates": { "lat": 5.044, "lng": 7.925 },
    "type": "Specialist Center",
    "services": ["Emergency Care", "Cardiology", "Nephrology", "Surgery", "Advanced Diagnostics"],
    "phone": "08029990002",
    "openingHours": "24/7",
    "imageUrl": "https://placehold.co/600x400.png",
    "dataAiHint": "modern hospital"
  },
  {
    "id": "ak-3",
    "name": "St. Luke's Hospital, Anua",
    "address": "Nwaniba Road, Anua, Uyo, Akwa Ibom",
    "coordinates": { "lat": 5.032, "lng": 7.949 },
    "type": "Hospital",
    "services": ["General Consultation", "Maternity", "Pediatrics", "Emergency Care", "Pharmacy"],
    "phone": "08029990003",
    "openingHours": "24/7",
    "imageUrl": "https://placehold.co/600x400.png",
    "dataAiHint": "church hospital"
  },
  {
    "id": "ak-4",
    "name": "Mercy Hospital, Abak",
    "address": "Mercy Hospital Road, Abak, Akwa Ibom",
    "coordinates": { "lat": 4.978, "lng": 7.788 },
    "type": "Hospital",
    "services": ["General Consultation", "Maternity", "Emergency Care", "Community Health"],
    "phone": "08029990004",
    "openingHours": "24/7",
    "imageUrl": "https://placehold.co/600x400.png",
    "dataAiHint": "rural hospital"
  },
  {
    "id": "ak-5",
    "name": "General Hospital, Ikot Ekpene",
    "address": "Uyo Road, Ikot Ekpene, Akwa Ibom",
    "coordinates": { "lat": 5.183, "lng": 7.712 },
    "type": "Hospital",
    "services": ["Emergency Care", "General Surgery", "Maternity", "Pediatrics"],
    "phone": "08029990005",
    "openingHours": "24/7",
    "imageUrl": "https://placehold.co/600x400.png",
    "dataAiHint": "government hospital"
  },
  {
    "id": "ak-6",
    "name": "Life Care Hospital",
    "address": "23, Udo Udoma Avenue, Uyo, Akwa Ibom",
    "coordinates": { "lat": 5.024, "lng": 7.923 },
    "type": "Clinic",
    "services": ["General Consultation", "Health Checkups", "Diagnostics", "Pharmacy"],
    "phone": "08029990006",
    "openingHours": "Mon-Sat 8am-9pm",
    "imageUrl": "https://placehold.co/600x400.png",
    "dataAiHint": "clinic building"
  },
  {
    "id": "ak-7",
    "name": "San Dominique Hospital",
    "address": "Uqua Road, Eket, Akwa Ibom",
    "coordinates": { "lat": 4.645, "lng": 7.928 },
    "type": "Hospital",
    "services": ["Emergency Care", "General Consultation", "Surgery", "Maternity"],
    "phone": "08029990007",
    "openingHours": "24/7",
    "imageUrl": "https://placehold.co/600x400.png",
    "dataAiHint": "hospital building"
  },
  {
    "id": "ak-8",
    "name": "Anie Dental Clinic",
    "address": "183 Ikot Ekpene Rd, Uyo, Akwa Ibom",
    "coordinates": { "lat": 5.041, "lng": 7.922 },
    "type": "Dental Clinic",
    "services": ["Dental Checkup", "Teeth Cleaning", "Fillings", "Whitening", "Extractions"],
    "phone": "08029990008",
    "openingHours": "Mon-Fri 9am-5pm",
    "imageUrl": "https://placehold.co/600x400.png",
    "dataAiHint": "dental clinic"
  },
  {
    "id": "ak-9",
    "name": "Goodnews Fitness Gym",
    "address": "29, Ikot Ekpene Road, Uyo, Akwa Ibom",
    "coordinates": { "lat": 5.042, "lng": 7.923 },
    "type": "Gym",
    "services": ["Weight Training", "Cardio Equipment", "Personal Training", "Aerobics"],
    "phone": "08029990009",
    "openingHours": "Mon-Sat 6am-9pm",
    "imageUrl": "https://placehold.co/600x400.png",
    "dataAiHint": "gym fitness"
  },
  {
    "id": "ak-10",
    "name": "Family Life Medical Centre",
    "address": "203 Nwaniba road, Uyo, Akwa Ibom",
    "coordinates": { "lat": 5.031, "lng": 7.945 },
    "type": "Clinic",
    "services": ["Family Medicine", "Health Checkups", "Vaccinations", "Pharmacy"],
    "phone": "08029990010",
    "openingHours": "24/7",
    "imageUrl": "https://placehold.co/600x400.png",
    "dataAiHint": "medical center"
  },
  {
    "id": "ak-11",
    "name": "Samaritan Clinic/ Hospital",
    "address": "7 EKONG UKO STREET, EKET",
    "coordinates": { "lat": 4.643, "lng": 7.927 },
    "type": "Hospital",
    "services": ["Emergency Care", "General Consultation", "Surgery", "Pharmacy"],
    "phone": "08064752204",
    "openingHours": "24/7",
    "imageUrl": "https://placehold.co/600x400.png",
    "dataAiHint": "hospital building"
  },
  {
    "id": "ak-12",
    "name": "Cozar Specialist Hospital",
    "address": "No. 6 Main School Road, Off Hospital Road, Eket",
    "coordinates": { "lat": 4.646, "lng": 7.929 },
    "type": "Hospital",
    "services": ["Emergency Care", "Specialist Consultation", "Surgery", "Diagnostics"],
    "phone": "08036501818",
    "openingHours": "24/7",
    "imageUrl": "https://placehold.co/600x400.png",
    "dataAiHint": "specialist hospital"
  },
  {
    "id": "ak-13",
    "name": "Domingo Specialist Hospital",
    "address": "PLOT 9, UNIT E, BEN UDOH STR, EWET HOUSING ESTATE",
    "coordinates": { "lat": 5.015, "lng": 7.935 },
    "type": "Hospital",
    "services": ["Emergency Care", "Specialist Consultation", "Surgery", "Pharmacy"],
    "phone": "08034057550",
    "openingHours": "24/7",
    "imageUrl": "https://placehold.co/600x400.png",
    "dataAiHint": "specialist hospital"
  },
  {
    "id": "ak-14",
    "name": "Jeconiah Specialist Hospital",
    "address": "BANKING LAYOUT OFF UDO UDOMA, OPP AKWA IBOM SATE HOUSE OF ASSEMBLY, UYO",
    "coordinates": { "lat": 5.025, "lng": 7.924 },
    "type": "Hospital",
    "services": ["Emergency Care", "Specialist Consultation", "Surgery", "Diagnostics"],
    "phone": "08035784531",
    "openingHours": "24/7",
    "imageUrl": "https://placehold.co/600x400.png",
    "dataAiHint": "specialist hospital"
  },
  {
    "id": "ak-15",
    "name": "Unwanna Family Hospital",
    "address": "16 NKEMBA STREET , UYO,",
    "coordinates": { "lat": 5.035, "lng": 7.938 },
    "type": "Hospital",
    "services": ["Family Medicine", "Maternity", "Pediatrics", "Emergency Care"],
    "phone": "08028102307",
    "openingHours": "24/7",
    "imageUrl": "https://placehold.co/600x400.png",
    "dataAiHint": "family hospital"
  },
  {
    "id": "ak-16",
    "name": "SAN DOMINIQUE HOSPITAL",
    "address": "PLOT 3, UNIT G,EWET HOUSING ESTATE, UYO",
    "coordinates": { "lat": 5.016, "lng": 7.936 },
    "type": "Hospital",
    "services": ["Emergency Care", "General Consultation", "Surgery", "Maternity"],
    "phone": "08033510775",
    "openingHours": "24/7",
    "imageUrl": "https://placehold.co/600x400.png",
    "dataAiHint": "hospital building"
  },
  {
    "id": "ak-17",
    "name": "NEDEKE CHILDRENS HOSPITAL",
    "address": "34 UDO EKPO MKPO STREET OFF NWANIBA ROAD, UYO",
    "coordinates": { "lat": 5.033, "lng": 7.951 },
    "type": "Hospital",
    "services": ["Pediatrics", "Emergency Care", "Neonatal Care", "Vaccinations"],
    "phone": "08023244902",
    "openingHours": "24/7",
    "imageUrl": "https://placehold.co/600x400.png",
    "dataAiHint": "children hospital"
  },
  {
    "id": "ak-18",
    "name": "MFON ABASI MEDICAL CENTER",
    "address": "10, GIBBS STREET, UYO, AKWA IBOM STATE",
    "coordinates": { "lat": 5.038, "lng": 7.931 },
    "type": "Hospital",
    "services": ["Emergency Care", "General Consultation", "Diagnostics", "Pharmacy"],
    "phone": "08023160661",
    "openingHours": "24/7",
    "imageUrl": "https://placehold.co/600x400.png",
    "dataAiHint": "medical center"
  },
  {
    "id": "ak-19",
    "name": "Smile Well Dental Clinic Limited",
    "address": "NO 405 ORON ROAD, BY DAN BASSEY STREET MBIABONG UYO",
    "coordinates": { "lat": 5.001, "lng": 7.945 },
    "type": "Dental Clinic",
    "services": ["Dental Checkup", "Teeth Cleaning", "Fillings", "Whitening"],
    "phone": "08065336028",
    "openingHours": "Mon-Fri 9am-5pm",
    "imageUrl": "https://placehold.co/600x400.png",
    "dataAiHint": "dental clinic"
  },
  {
    "id": "ak-20",
    "name": "Cee Jay Vision Centre",
    "address": "7 EKPO OBOT STREET, UYO",
    "coordinates": { "lat": 5.037, "lng": 7.933 },
    "type": "Optical Center",
    "services": ["Eye Examination", "Glasses", "Contact Lenses"],
    "phone": "08027264697",
    "openingHours": "Mon-Sat 9am-6pm",
    "imageUrl": "https://placehold.co/600x400.png",
    "dataAiHint": "optical center"
  },
  {
    "id": "ak-21",
    "name": "Majesty Hospital",
    "address": "60, Wellington Bassey Way Uyo",
    "coordinates": { "lat": 5.045, "lng": 7.935 },
    "type": "Hospital",
    "services": ["Emergency Care", "General Consultation", "Surgery", "Pharmacy"],
    "phone": "09058940338",
    "openingHours": "24/7",
    "imageUrl": "https://placehold.co/600x400.png",
    "dataAiHint": "hospital building"
  },
  {
    "id": "ak-22",
    "name": "Mount Olive Clinic and Maternity",
    "address": "8, Ebong Essien Street, Off Ikot - Ekpene Road, Uyo,",
    "coordinates": { "lat": 5.043, "lng": 7.924 },
    "type": "Clinic",
    "services": ["Maternity", "General Consultation", "Pediatrics"],
    "phone": "08022232072",
    "openingHours": "24/7",
    "imageUrl": "https://placehold.co/600x400.png",
    "dataAiHint": "maternity clinic"
  },
  {
    "id": "ak-23",
    "name": "Majesty Hospital and Eye Centre",
    "address": "60, Wellington Bassey Way Uyo",
    "coordinates": { "lat": 5.045, "lng": 7.935 },
    "type": "Optical Center",
    "services": ["Eye Examination", "Glasses", "Contact Lenses", "Eye Surgery"],
    "phone": "09058940338",
    "openingHours": "Mon-Fri 9am-5pm",
    "imageUrl": "https://placehold.co/600x400.png",
    "dataAiHint": "eye clinic"
  },
  {
    "id": "ak-24",
    "name": "Peace Medical Centre( UYO)",
    "address": "Plot 68, Green Spring estate shelter Afrique Housing Estate, Uyo",
    "coordinates": { "lat": 5.012, "lng": 7.942 },
    "type": "Hospital",
    "services": ["Emergency Care", "General Consultation", "Health Checkups", "Pharmacy"],
    "phone": "08036669406",
    "openingHours": "24/7",
    "imageUrl": "https://placehold.co/600x400.png",
    "dataAiHint": "medical center"
  },
  {
    "id": "ak-25",
    "name": "premier medical services",
    "address": "3 HIGH TENSION LANE, UYO",
    "coordinates": { "lat": 5.039, "lng": 7.939 },
    "type": "Hospital",
    "services": ["Emergency Care", "General Consultation", "Diagnostics"],
    "phone": "07064879822",
    "openingHours": "24/7",
    "imageUrl": "https://placehold.co/600x400.png",
    "dataAiHint": "medical service"
  },
  {
    "id": "ak-26",
    "name": "ST. ATHANASIUS HOSPITAL LIMITED",
    "address": "1, UFEH STREET, FEDERAL HOUSING ESTATE, ABAK ROAD",
    "coordinates": { "lat": 5.028, "lng": 7.908 },
    "type": "Hospital",
    "services": ["Emergency Care", "General Consultation", "Surgery", "Pharmacy"],
    "phone": "08039235370",
    "openingHours": "24/7",
    "imageUrl": "https://placehold.co/600x400.png",
    "dataAiHint": "hospital building"
  },
  {
    "id": "ak-27",
    "name": "Niger Optical- Uyo",
    "address": "35 Ekpanya Street, Uyo",
    "coordinates": { "lat": 5.036, "lng": 7.937 },
    "type": "Optical Center",
    "services": ["Eye Examination", "Glasses", "Contact Lenses"],
    "phone": "08118919452",
    "openingHours": "Mon-Sat 8am-6pm",
    "imageUrl": "https://placehold.co/600x400.png",
    "dataAiHint": "optical store"
  },
  {
    "id": "ak-28",
    "name": "Niger Optical- Eket",
    "address": "20A Eket/ Oron Road, Eket",
    "coordinates": { "lat": 4.641, "lng": 7.932 },
    "type": "Optical Center",
    "services": ["Eye Examination", "Glasses", "Contact Lenses"],
    "phone": "08161536294",
    "openingHours": "Mon-Sat 8am-6pm",
    "imageUrl": "https://placehold.co/600x400.png",
    "dataAiHint": "optical store"
  },
  {
    "id": "ak-29",
    "name": "St athanasius Dental",
    "address": "1, UFEH STREET, FEDERAL HOSUSING ESTATE, ABAK ROAD",
    "coordinates": { "lat": 5.028, "lng": 7.908 },
    "type": "Dental Clinic",
    "services": ["Dental Checkup", "Teeth Cleaning", "Fillings"],
    "phone": "08039235370",
    "openingHours": "Mon-Fri 9am-5pm",
    "imageUrl": "https://placehold.co/600x400.png",
    "dataAiHint": "dental clinic"
  },
  {
    "id": "ak-30",
    "name": "St Athanasius Optical",
    "address": "1, UFEH STREET, FEDERAL HOSUSING ESTATE, ABAK ROAD",
    "coordinates": { "lat": 5.028, "lng": 7.908 },
    "type": "Optical Center",
    "services": ["Eye Examination", "Glasses", "Contact Lenses"],
    "phone": "07081896107",
    "openingHours": "Mon-Fri 9am-5pm",
    "imageUrl": "https://placehold.co/600x400.png",
    "dataAiHint": "optical center"
  },
  {
    "id": "ak-31",
    "name": "ZITADEL EYE CLINIC (UYO)",
    "address": "60 OSONGAMA ROAD UYO",
    "coordinates": { "lat": 5.019, "lng": 7.941 },
    "type": "Optical Center",
    "services": ["Eye Examination", "Glasses", "Contact Lenses"],
    "phone": "07032083265",
    "openingHours": "Mon-Sat 9am-6pm",
    "imageUrl": "https://placehold.co/600x400.png",
    "dataAiHint": "eye clinic"
  },
  {
    "id": "ak-32",
    "name": "EVERGREEN MEDICAL CENTRE",
    "address": "4 Otong Road, off Market Road, Ikot Ekpene, Akwa Ibom",
    "coordinates": { "lat": 5.184, "lng": 7.713 },
    "type": "Hospital",
    "services": ["Emergency Care", "General Consultation", "Pharmacy"],
    "phone": "08068506918",
    "openingHours": "24/7",
    "imageUrl": "https://placehold.co/600x400.png",
    "dataAiHint": "medical center"
  },
  {
    "id": "ak-33",
    "name": "ALPHA VISION EYE CENTER",
    "address": "2 Udosen Uko street off Nwaniba road Uyo",
    "coordinates": { "lat": 5.034, "lng": 7.953 },
    "type": "Optical Center",
    "services": ["Eye Examination", "Glasses", "Contact Lenses", "Vision Therapy"],
    "phone": "08030810366",
    "openingHours": "Mon-Sat 8am-6pm",
    "imageUrl": "https://placehold.co/600x400.png",
    "dataAiHint": "eye clinic"
  },
  {
    "id": "ak-34",
    "name": "NET CARE PHYSIOTHERAPY",
    "address": "20 IBB AVENUE UYO",
    "coordinates": { "lat": 5.03, "lng": 7.92 },
    "type": "Physiotherapy Clinic",
    "services": ["Physical Therapy", "Rehabilitation", "Sports Injury", "Post-operative care"],
    "phone": "08033839314",
    "openingHours": "Mon-Fri 9am-5pm",
    "imageUrl": "https://placehold.co/600x400.png",
    "dataAiHint": "physiotherapy clinic"
  },
  {
    "id": "ak-35",
    "name": "ROMIVIC SPECIALIST CLINIC",
    "address": "18 ISONG UDO ITO STREET OFF UQUA ROAD EKET",
    "coordinates": { "lat": 4.647, "lng": 7.93 },
    "type": "Clinic",
    "services": ["Specialist Consultation", "General Medicine", "Diagnostics"],
    "phone": "08036695707",
    "openingHours": "24/7",
    "imageUrl": "https://placehold.co/600x400.png",
    "dataAiHint": "specialist clinic"
  },
  {
    "id": "ak-36",
    "name": "ANUZI EYE CLINIC (UYO)",
    "address": "SUITE 5 INSWAD PLAZA OPPOSITE LUCKY FILLING STTION IDORO ROAD UYO",
    "coordinates": { "lat": 5.05, "lng": 7.91 },
    "type": "Optical Center",
    "services": ["Eye Examination", "Glasses", "Contact Lenses"],
    "phone": "08034215669",
    "openingHours": "Mon-Sat 9am-6pm",
    "imageUrl": "https://placehold.co/600x400.png",
    "dataAiHint": "eye clinic"
  },
  {
    "id": "ak-37",
    "name": "Hephzibah Eyecare- UYO",
    "address": "287, Oron Road, Itiam Bus Stop (Beside Forte Oil), Uyo, Akwa Ibom",
    "coordinates": { "lat": 5.01, "lng": 7.94 },
    "type": "Optical Center",
    "services": ["Eye Examination", "Glasses", "Contact Lenses", "Designer Frames"],
    "phone": "08134264018",
    "openingHours": "Mon-Sat 8:30am-5:30pm",
    "imageUrl": "https://placehold.co/600x400.png",
    "dataAiHint": "eyecare center"
  },
  {
    "id": "ak-38",
    "name": "UWAKMFON CLINICS AND HOSPITAL",
    "address": "55 IDIONGNKA STREET UYO",
    "coordinates": { "lat": 5.04, "lng": 7.93 },
    "type": "Hospital",
    "services": ["Emergency Care", "General Consultation", "Maternity", "Surgery"],
    "phone": "08023082382",
    "openingHours": "24/7",
    "imageUrl": "https://placehold.co/600x400.png",
    "dataAiHint": "hospital building"
  },
  {
    "id": "ak-39",
    "name": "Zerah International Eye Hospital",
    "address": "14 Obong street, off IBB way, Uyo",
    "coordinates": { "lat": 5.031, "lng": 7.922 },
    "type": "Optical Center",
    "services": ["Eye Surgery", "Specialist Eye Care", "Eye Examination"],
    "phone": "8063667988",
    "openingHours": "24/7",
    "imageUrl": "https://placehold.co/600x400.png",
    "dataAiHint": "eye hospital"
  },
  {
    "id": "ak-40",
    "name": "Neon Health Services Limited",
    "address": "Plot 132 unit A G line Ewet housing estate , Uyo",
    "coordinates": { "lat": 5.017, "lng": 7.937 },
    "type": "Hospital",
    "services": ["Emergency Care", "General Consultation", "Health Checkups"],
    "phone": "9150617554",
    "openingHours": "24/7",
    "imageUrl": "https://placehold.co/600x400.png",
    "dataAiHint": "health service"
  },
  {
    "id": "ak-41",
    "name": "Monty Suites Gym",
    "address": "37 General Edet Akpan Avenue, Uyo, Akwa Ibom",
    "coordinates": { "lat": 5.02, "lng": 7.92 },
    "type": "Gym",
    "services": ["Weight Training", "Cardio Equipment", "Swimming Pool", "Personal Training"],
    "phone": "07038091700",
    "openingHours": "Mon-Sun 6am-10pm",
    "imageUrl": "https://placehold.co/600x400.png",
    "dataAiHint": "hotel gym"
  },
  {
    "id": "ak-42",
    "name": "Monty Suites Spa",
    "address": "37 General Edet Akpan Avenue, Uyo, Akwa Ibom",
    "coordinates": { "lat": 5.02, "lng": 7.92 },
    "type": "Spa",
    "services": ["Massage", "Sauna", "Steam Room", "Beauty Treatments"],
    "phone": "07038091700",
    "openingHours": "Mon-Sun 10am-9pm",
    "imageUrl": "https://placehold.co/600x400.png",
    "dataAiHint": "luxury spa"
  },
  {
    "id": "ak-43",
    "name": "MENDITH DENTAL SURGERY",
    "address": "29b Afaha-Eket road Eket",
    "coordinates": { "lat": 4.65, "lng": 7.93 },
    "type": "Dental Clinic",
    "services": ["Dental Surgery", "Dental Checkup", "Fillings", "Extractions"],
    "phone": "08032156272",
    "openingHours": "Mon-Fri 9am-5pm",
    "imageUrl": "https://placehold.co/600x400.png",
    "dataAiHint": "dental surgery"
  },
  {
    "id": "ak-44",
    "name": "Divine Love Hospital",
    "address": "Divine Love Hospital, Utu Ikot Imonte, Etim Ekpo LGA, Akwa Ibom State, Nigeria.",
    "coordinates": { "lat": 4.88, "lng": 7.66 },
    "type": "Hospital",
    "services": ["Emergency Care", "General Consultation", "Maternity", "Community Health"],
    "phone": "08064684046",
    "openingHours": "24/7",
    "imageUrl": "https://placehold.co/600x400.png",
    "dataAiHint": "rural hospital"
  },
  {
    "id": "ak-45",
    "name": "Crisp Vision Eye Clinic",
    "address": "23b Uqua Road Eket, Akwa Ibom State",
    "coordinates": { "lat": 4.648, "lng": 7.929 },
    "type": "Optical Center",
    "services": ["Eye Examination", "Glasses", "Contact Lenses"],
    "phone": "08080112443",
    "openingHours": "Mon-Sat 9am-6pm",
    "imageUrl": "https://placehold.co/600x400.png",
    "dataAiHint": "eye clinic"
  },
  {
    "id": "ak-46",
    "name": "CEDAR AND OLIVE CLINIC",
    "address": "62 Port Harcourt street, Abak",
    "coordinates": { "lat": 4.98, "lng": 7.79 },
    "type": "Clinic",
    "services": ["General Consultation", "Minor Procedures", "Health Checkups"],
    "phone": "08121976988",
    "openingHours": "24/7",
    "imageUrl": "https://placehold.co/600x400.png",
    "dataAiHint": "small clinic"
  },
  {
    "id": "ak-47",
    "name": "Blue Gloves hospital",
    "address": "No. 2 Sylvanus Okon Street, Off Edet Akpan Avenue, Uyo, Akwa Ibom State",
    "coordinates": { "lat": 5.021, "lng": 7.921 },
    "type": "Hospital",
    "services": ["Emergency Care", "General Consultation", "Surgery", "Maternity"],
    "phone": "08109721819",
    "openingHours": "24/7",
    "imageUrl": "https://placehold.co/600x400.png",
    "dataAiHint": "hospital building"
  },
  {
    "id": "ak-48",
    "name": "Mediques Plus Hospital",
    "address": "H22 Ewet Housing Estate, Uyo",
    "coordinates": { "lat": 5.018, "lng": 7.938 },
    "type": "Hospital",
    "services": ["Emergency Care", "General Consultation", "Diagnostics", "Pharmacy"],
    "phone": "08133756264",
    "openingHours": "24/7",
    "imageUrl": "https://placehold.co/600x400.png",
    "dataAiHint": "hospital building"
  },
  {
    "id": "ak-49",
    "name": "Pinnacle Hospital",
    "address": "10 Quality Ceramics road, Afaha Obong Itam, Itam Police station",
    "coordinates": { "lat": 5.1, "lng": 7.9 },
    "type": "Hospital",
    "services": ["Emergency Care", "General Consultation", "Maternity", "Surgery"],
    "phone": "08060449215",
    "openingHours": "24/7",
    "imageUrl": "https://placehold.co/600x400.png",
    "dataAiHint": "hospital building"
  },
  {
    "id": "ak-50",
    "name": "La Reine Spa",
    "address": "2 Apostolic road, Osongama Estate, Uyo Akwa Ibom state",
    "coordinates": { "lat": 5.022, "lng": 7.942 },
    "type": "Spa",
    "services": ["Massage", "Facials", "Body Treatments", "Wellness"],
    "phone": "08056180350",
    "openingHours": "Tue-Sun 10am-7pm",
    "imageUrl": "https://placehold.co/600x400.png",
    "dataAiHint": "luxury spa"
  },
  {
    "id": "ak-51",
    "name": "Nathel Eye Clinic",
    "address": "No 65 Iboko street, Uyo, Akwa-Ibom State",
    "coordinates": { "lat": 5.039, "lng": 7.932 },
    "type": "Optical Center",
    "services": ["Eye Examination", "Glasses", "Contact Lenses"],
    "phone": "07084151360",
    "openingHours": "Mon-Fri 8am-5pm",
    "imageUrl": "https://placehold.co/600x400.png",
    "dataAiHint": "eye clinic"
  },
  {
    "id": "ak-52",
    "name": "Fulcare Medical Consultancy",
    "address": "15bEkpanya street Uyo Akwa Ibom",
    "coordinates": { "lat": 5.036, "lng": 7.937 },
    "type": "Clinic",
    "services": ["Specialist Consultation", "General Medicine", "Health Checkups"],
    "phone": "08063370718",
    "openingHours": "By Appointment",
    "imageUrl": "https://placehold.co/600x400.png",
    "dataAiHint": "medical office"
  },
  {
    "id": "ak-53",
    "name": "City Clinic and infirmary",
    "address": "30d, Godwin Abbe Avenue, Ewet housing Estate, Uyo, Akwa Ibom state.",
    "coordinates": { "lat": 5.019, "lng": 7.939 },
    "type": "Clinic",
    "services": ["General Consultation", "First Aid", "Minor Procedures"],
    "phone": "08066111110",
    "openingHours": "24/7",
    "imageUrl": "https://placehold.co/600x400.png",
    "dataAiHint": "small clinic"
  },
  {
    "id": "ak-54",
    "name": "Omega Fortune Clinic",
    "address": "NO. 2 UDOSEN UKO STREET OFF NWANIBA ROAD UYO, AKWA IBOM STATE",
    "coordinates": { "lat": 5.034, "lng": 7.953 },
    "type": "Clinic",
    "services": ["General Consultation", "Health Checkups", "Pharmacy"],
    "phone": "07011545075",
    "openingHours": "24/7",
    "imageUrl": "https://placehold.co/600x400.png",
    "dataAiHint": "clinic building"
  },
  {
    "id": "ak-55",
    "name": "Saglophil Specialist Hospital",
    "address": "C-10 EWET HOUSING EXTENSION, UYO",
    "coordinates": { "lat": 5.014, "lng": 7.94 },
    "type": "Hospital",
    "services": ["Emergency Care", "Specialist Consultation", "Surgery", "Diagnostics"],
    "phone": "08023253923",
    "openingHours": "24/7",
    "imageUrl": "https://placehold.co/600x400.png",
    "dataAiHint": "specialist hospital"
  },
  {
    "id": "ak-56",
    "name": "Pinnacle Medical Center Eket",
    "address": "20 Ekpene Ukpa Avenue, opposite ministry of works, Eket.",
    "coordinates": { "lat": 4.649, "lng": 7.931 },
    "type": "Hospital",
    "services": ["Emergency Care", "General Consultation", "Maternity", "Surgery"],
    "phone": "08060449215",
    "openingHours": "24/7",
    "imageUrl": "https://placehold.co/600x400.png",
    "dataAiHint": "medical center"
  },
  {
    "id": "ak-57",
    "name": "Ibom Multi-Specialty Hospital",
    "address": "Ekit Itam 11, Uyo-Ikot Ekpene road, Uyo",
    "coordinates": { "lat": 5.08, "lng": 7.9 },
    "type": "Specialist Center",
    "services": ["Cardiology", "Nephrology", "Oncology", "Advanced Surgery", "Emergency Care"],
    "phone": "08032746974",
    "openingHours": "24/7",
    "imageUrl": "https://placehold.co/600x400.png",
    "dataAiHint": "modern hospital"
  },
  {
    "id": "ak-58",
    "name": "Abasinnyin-Ekeme Medical Centre",
    "address": "Ikot Idaha, Ibiono Ibom, Akwa Ibom State.",
    "coordinates": { "lat": 5.25, "lng": 7.85 },
    "type": "Hospital",
    "services": ["Emergency Care", "General Consultation", "Maternity", "Community Health"],
    "phone": "08023462874",
    "openingHours": "24/7",
    "imageUrl": "https://placehold.co/600x400.png",
    "dataAiHint": "rural hospital"
  }
]
