
[
  {
    "id": "cr-1",
    "name": "University of Calabar Teaching Hospital",
    "address": "UNICAL Hotel Road, Calabar South, Calabar 540281, Cross River",
    "coordinates": { "lat": 4.9585, "lng": 8.3392 },
    "type": "Hospital",
    "services": ["Emergency Care", "Specialist Consultation", "Surgery", "Maternity", "Diagnostics", "Pharmacy"],
    "phone": "08021236801",
    "openingHours": "24/7",
    "imageUrl": "https://placehold.co/600x400.png",
    "dataAiHint": "hospital university"
  },
  {
    "id": "cr-2",
    "name": "General Hospital Calabar",
    "address": "113 Mary Slessor Avenue, Efut Ekondo, Cross River ",
    "coordinates": { "lat": 4.9753, "lng": 8.3421 },
    "type": "Hospital",
    "services": ["Emergency Care", "General Consultation", "Maternity", "Pediatrics", "Pharmacy"],
    "phone": "08031234567",
    "openingHours": "24/7",
    "imageUrl": "https://i.ibb.co/F47Yyvwd/General-Hospital-Calabar-Calabar-Nigeria-Ask-Annie-Tortoise-Pathcom-6.jpg",
    "dataAiHint": "hospital building"
  },
  {
    "id": "cr-3",
    "name": "Navy Reference Hospital Calabar",
    "address": "Akpabuyo, Calabar, Cross River",
    "coordinates": { "lat": 4.9458, "lng": 8.3567 },
    "type": "Hospital",
    "services": ["Emergency Care", "Surgery", "Naval Medicine", "Diagnostics", "Specialist Care"],
    "phone": "08098765432",
    "openingHours": "24/7",
    "imageUrl": "https://placehold.co/600x400.png",
    "dataAiHint": "navy hospital"
  },
  {
    "id": "cr-4",
    "name": "Arubah Medical Center",
    "address": "15, Atamunu Street, Calabar, Cross River",
    "coordinates": { "lat": 4.9542, "lng": 8.3283 },
    "type": "Clinic",
    "services": ["General Consultation", "Health Checkups", "Minor Procedures", "Pharmacy"],
    "phone": "08023456789",
    "openingHours": "Mon-Sat 8am-8pm",
    "imageUrl": "https://placehold.co/600x400.png",
    "dataAiHint": "clinic building"
  },
  {
    "id": "cr-5",
    "name": "Asi Ukpo Comprehensive Medical Centre",
    "address": "Asi Ukpo Close, Off MCC Road, Calabar, Cross River",
    "coordinates": { "lat": 4.9811, "lng": 8.3499 },
    "type": "Hospital",
    "services": ["Emergency Care", "Comprehensive Health", "Surgery", "Diagnostics", "Pharmacy"],
    "phone": "08065432109",
    "openingHours": "24/7",
    "imageUrl": "https://placehold.co/600x400.png",
    "dataAiHint": "medical center"
  },
  {
    "id": "cr-6",
    "name": "Kreitton Care Hospital",
    "address": "12, Ebed Residential Estate, Asari Eso street, Calabar, Cross River state",
    "coordinates": { "lat": 4.96, "lng": 8.33 },
    "type": "Hospital",
    "services": ["Emergency Care", "General Consultation", "Surgery", "Maternity"],
    "phone": "08068211605",
    "openingHours": "24/7",
    "imageUrl": "https://placehold.co/600x400.png",
    "dataAiHint": "hospital building"
  },
  {
    "id": "cr-7",
    "name": "DANEX MEDICAL CENTRE",
    "address": "5 DANEX ROAD, OFF IKOM CALABAR HIGHWAY, UGEP, CROSS RIVER STATE",
    "coordinates": { "lat": 5.80, "lng": 8.08 },
    "type": "Hospital",
    "services": ["Emergency Care", "General Consultation", "Surgery", "Pharmacy"],
    "phone": "08053645557",
    "openingHours": "24/7",
    "imageUrl": "https://placehold.co/600x400.png",
    "dataAiHint": "hospital building"
  },
  {
    "id": "cr-8",
    "name": "Holy Family Hospital Ikom",
    "address": "Beside Holy Family Catholic Parish, Ikom, Cross River",
    "coordinates": { "lat": 5.96, "lng": 8.71 },
    "type": "Hospital",
    "services": ["Emergency Care", "General Consultation", "Maternity"],
    "phone": "08157953019",
    "openingHours": "24/7",
    "imageUrl": "https://placehold.co/600x400.png",
    "dataAiHint": "church hospital"
  },
  {
    "id": "cr-9",
    "name": "Zerah Eye Clinic- Calabar",
    "address": "103 Eta Nya Street, Ibom Layout, Calabar, Cross River State, Nigeria",
    "coordinates": { "lat": 4.97, "lng": 8.34 },
    "type": "Optical Center",
    "services": ["Eye Examination", "Glasses", "Contact Lenses", "Vision Therapy"],
    "phone": "+2348164021613",
    "openingHours": "Mon-Sat 9am-6pm",
    "imageUrl": "https://placehold.co/600x400.png",
    "dataAiHint": "eye clinic"
  },
  {
    "id": "cr-10",
    "name": "Victoria Medical Center",
    "address": "101 Ndidem usong Iso/ Marian Road Calabar, Cross River",
    "coordinates": { "lat": 4.98, "lng": 8.35 },
    "type": "Hospital",
    "services": ["Emergency Care", "General Consultation", "Pharmacy", "Diagnostics"],
    "phone": "07030584183",
    "openingHours": "24/7",
    "imageUrl": "https://placehold.co/600x400.png",
    "dataAiHint": "medical center"
  },
  {
    "id": "cr-11",
    "name": "Hogis Gym",
    "address": "No.7 Akim close, State Housing Estate, Off Ndidem Usang Iso (Marian) road, Calabar",
    "coordinates": { "lat": 4.97, "lng": 8.345 },
    "type": "Gym",
    "services": ["Fitness Training", "Weight Lifting", "Cardio", "Yoga"],
    "phone": "08099903335",
    "openingHours": "Mon-Sun 6am-9pm",
    "imageUrl": "https://placehold.co/600x400.png",
    "dataAiHint": "gym fitness"
  },
  {
    "id": "cr-12",
    "name": "John Mark Cottage Hospital",
    "address": "7 Mbube Road Ndok Junction Ogoja Cross River State.",
    "coordinates": { "lat": 6.65, "lng": 8.79 },
    "type": "Hospital",
    "services": ["Emergency Care", "General Consultation", "Maternity"],
    "phone": "07019144419",
    "openingHours": "24/7",
    "imageUrl": "https://placehold.co/600x400.png",
    "dataAiHint": "rural hospital"
  },
  {
    "id": "cr-13",
    "name": "CALABAR WOMEN AND CHILDREN HOSPITAL",
    "address": "164/165 MURTALA MUHAMMED STREET CALABAR",
    "coordinates": { "lat": 4.95, "lng": 8.32 },
    "type": "Hospital",
    "services": ["Maternity", "Pediatrics", "Gynecology", "Emergency Care"],
    "phone": "07042213383",
    "openingHours": "24/7",
    "imageUrl": "https://placehold.co/600x400.png",
    "dataAiHint": "women children hospital"
  },
  {
    "id": "cr-14",
    "name": "Roman Fitness Gym",
    "address": "No1A IVARA ESU STREET, Calabar",
    "coordinates": { "lat": 4.96, "lng": 8.325 },
    "type": "Gym",
    "services": ["Fitness Training", "Weight Lifting", "Personal Training"],
    "phone": "08033678410",
    "openingHours": "Mon-Sat 6am-9pm",
    "imageUrl": "https://placehold.co/600x400.png",
    "dataAiHint": "gym weights"
  },
  {
    "id": "cr-15",
    "name": "Dot On Massage therapy",
    "address": "No 80 Etta Agbor Road Calabar",
    "coordinates": { "lat": 4.965, "lng": 8.33 },
    "type": "Spa",
    "services": ["Massage", "Aromatherapy", "Relaxation Therapy", "Wellness"],
    "phone": "07068626727",
    "openingHours": "Mon-Sun 10am-8pm",
    "imageUrl": "https://placehold.co/600x400.png",
    "dataAiHint": "spa massage"
  },
  {
    "id": "cr-16",
    "name": "Bakor Medical centre",
    "address": "NO. 124 Murtala Mohammed High way, opp NNPC and Oando filling station, Federal housing, Calabar",
    "coordinates": { "lat": 4.99, "lng": 8.35 },
    "type": "Hospital",
    "services": ["Emergency Care", "General Consultation", "Diagnostics"],
    "phone": "08090968150",
    "openingHours": "24/7",
    "imageUrl": "https://placehold.co/600x400.png",
    "dataAiHint": "medical center"
  },
  {
    "id": "cr-17",
    "name": "Arubah Specialist Hospital- isang iso",
    "address": "NO 23 NSEFIK EYO CLOSE OFF NDIDEM USANG ISO ROAD, Calabar",
    "coordinates": { "lat": 4.975, "lng": 8.345 },
    "type": "Specialist Center",
    "services": ["Specialist Care", "Surgery", "Emergency Care"],
    "phone": "08113333822",
    "openingHours": "24/7",
    "imageUrl": "https://placehold.co/600x400.png",
    "dataAiHint": "specialist hospital"
  },
  {
    "id": "cr-18",
    "name": "Goldie Clinic",
    "address": "4 EKONG NYONG CLOSE CALABAR(ETA AGBO LAYOUT)",
    "coordinates": { "lat": 4.96, "lng": 8.335 },
    "type": "Clinic",
    "services": ["General Consultation", "Minor Procedures", "Health Checkups"],
    "phone": "08033329439",
    "openingHours": "Mon-Sat 8am-7pm",
    "imageUrl": "https://placehold.co/600x400.png",
    "dataAiHint": "clinic building"
  },
  {
    "id": "cr-19",
    "name": "Mambo Clinic Maternity and Diagnostics",
    "address": "12 ATAMUNU STREET CALABAR LGA",
    "coordinates": { "lat": 4.95, "lng": 8.32 },
    "type": "Clinic",
    "services": ["Maternity", "Diagnostics", "General Consultation", "Pediatrics"],
    "phone": "08077080587",
    "openingHours": "24/7",
    "imageUrl": "https://placehold.co/600x400.png",
    "dataAiHint": "maternity clinic"
  },
  {
    "id": "cr-20",
    "name": "Joebong Skin and Medical Centre",
    "address": "4 KADANA STREET OFF ATEKONG DRIVE STATE HOUSING ESTATE CALABAR",
    "coordinates": { "lat": 4.97, "lng": 8.34 },
    "type": "Specialist Center",
    "services": ["Dermatology", "Skin Care", "General Consultation"],
    "phone": "08038980730",
    "openingHours": "Mon-Fri 9am-5pm",
    "imageUrl": "https://placehold.co/600x400.png",
    "dataAiHint": "skin clinic"
  },
  {
    "id": "cr-21",
    "name": "Faith Foundation Specialist Clinic",
    "address": "57, NDIDEM USANG ISO RD, Calabar",
    "coordinates": { "lat": 4.978, "lng": 8.348 },
    "type": "Clinic",
    "services": ["Specialist Care", "General Consultation"],
    "phone": "08056568291",
    "openingHours": "Mon-Fri 9am-6pm",
    "imageUrl": "https://placehold.co/600x400.png",
    "dataAiHint": "specialist clinic"
  },
  {
    "id": "cr-22",
    "name": "Immanuel Infirmary",
    "address": "1, ASSEMBLIES OF GOD RD, ARMY JUNCTION, IKOT EFFANG, Calabar",
    "coordinates": { "lat": 5.00, "lng": 8.36 },
    "type": "Clinic",
    "services": ["General Consultation", "Minor Procedures", "First Aid"],
    "phone": "07069408025",
    "openingHours": "24/7",
    "imageUrl": "https://placehold.co/600x400.png",
    "dataAiHint": "small clinic"
  },
  {
    "id": "cr-23",
    "name": "Arubah Specialist Hospital- Unical Road",
    "address": "No 2,school road,UNICAL HOTEL ROAD,Calabar,Cross River State.",
    "coordinates": { "lat": 4.95, "lng": 8.34 },
    "type": "Specialist Center",
    "services": ["Specialist Care", "Emergency Care", "Surgery"],
    "phone": "08117333332",
    "openingHours": "24/7",
    "imageUrl": "https://placehold.co/600x400.png",
    "dataAiHint": "specialist hospital"
  },
  {
    "id": "cr-24",
    "name": "Peace Medical Centre ( CALABAR)",
    "address": "17 Efut St, Henshaw Town, Calabar",
    "coordinates": { "lat": 4.94, "lng": 8.32 },
    "type": "Clinic",
    "services": ["General Consultation", "Health Checkups", "Pharmacy"],
    "phone": "08036669406",
    "openingHours": "Mon-Sat 8am-8pm",
    "imageUrl": "https://placehold.co/600x400.png",
    "dataAiHint": "medical center"
  },
  {
    "id": "cr-25",
    "name": "Mevon Specialist Hospital",
    "address": "30,Akim Road, Calabar",
    "coordinates": { "lat": 4.98, "lng": 8.34 },
    "type": "Specialist Center",
    "services": ["Specialist Care", "Emergency Care", "Surgery"],
    "phone": "08035158331",
    "openingHours": "24/7",
    "imageUrl": "https://placehold.co/600x400.png",
    "dataAiHint": "specialist hospital"
  },
  {
    "id": "cr-26",
    "name": "Testimony Medical Consultants",
    "address": "Plot 392/394, Etta-Agbor Layout, Senator Bassey Ewa Henshaw Drive, Calabar",
    "coordinates": { "lat": 4.96, "lng": 8.33 },
    "type": "Clinic",
    "services": ["Specialist Consultation", "Health Checkups"],
    "phone": "08160574808",
    "openingHours": "By Appointment",
    "imageUrl": "https://placehold.co/600x400.png",
    "dataAiHint": "medical office"
  },
  {
    "id": "cr-27",
    "name": "Mt Zion Hospital",
    "address": "28B YELLOW DUKE STREET CALABAR",
    "coordinates": { "lat": 4.95, "lng": 8.32 },
    "type": "Hospital",
    "services": ["Emergency Care", "General Consultation", "Maternity"],
    "phone": "08033761952",
    "openingHours": "24/7",
    "imageUrl": "https://placehold.co/600x400.png",
    "dataAiHint": "hospital building"
  },
  {
    "id": "cr-28",
    "name": "COUNTY SPECIALIST HOSPITAL, IKOM",
    "address": "77 CALABAR ROAD FOUR CORNERS SQUARE IKOM",
    "coordinates": { "lat": 5.965, "lng": 8.715 },
    "type": "Specialist Center",
    "services": ["Specialist Care", "Emergency Care", "Surgery", "Diagnostics"],
    "phone": "09066636972",
    "openingHours": "24/7",
    "imageUrl": "https://placehold.co/600x400.png",
    "dataAiHint": "specialist hospital"
  },
  {
    "id": "cr-29",
    "name": "VINCITORE DENTAL CLINIC LTD",
    "address": "Plot 167 Ibom Layout (Beside Etaval Hotel), off Marian Road, Calabar",
    "coordinates": { "lat": 4.97, "lng": 8.34 },
    "type": "Dental Clinic",
    "services": ["Dental Checkup", "Teeth Cleaning", "Fillings", "Extractions", "Cosmetic Dentistry"],
    "phone": "08037521206",
    "openingHours": "Mon-Fri 9am-5pm",
    "imageUrl": "https://placehold.co/600x400.png",
    "dataAiHint": "dental clinic"
  },
  {
    "id": "cr-30",
    "name": "ST CECILIA EYE CLINIC",
    "address": "SUITE 3, VENETIAN MALL, BESIDES INDUSTRIAL TRAINING FUND, MURTALA MOHAMMED HIGHWAY, CALABAR.",
    "coordinates": { "lat": 4.99, "lng": 8.35 },
    "type": "Optical Center",
    "services": ["Eye Examination", "Glasses", "Contact Lenses"],
    "phone": "07067559759",
    "openingHours": "Mon-Sat 9am-6pm",
    "imageUrl": "https://placehold.co/600x400.png",
    "dataAiHint": "eye clinic"
  },
  {
    "id": "cr-31",
    "name": "BENITA EYE CLINIC",
    "address": "10 Mayne Avenue, Calabar South, Cross Rivers State.",
    "coordinates": { "lat": 4.94, "lng": 8.32 },
    "type": "Optical Center",
    "services": ["Eye Examination", "Glasses", "Contact Lenses"],
    "phone": "08037564564",
    "openingHours": "Mon-Fri 9am-5pm",
    "imageUrl": "https://placehold.co/600x400.png",
    "dataAiHint": "eye clinic"
  },
  {
    "id": "cr-32",
    "name": "ELIM EYE CLINIC",
    "address": "41 Diamond Hill, Calabar, Cross River State",
    "coordinates": { "lat": 4.945, "lng": 8.33 },
    "type": "Optical Center",
    "services": ["Eye Examination", "Glasses", "Contact Lenses"],
    "phone": "08061302925",
    "openingHours": "Mon-Fri 8am-5pm",
    "imageUrl": "https://placehold.co/600x400.png",
    "dataAiHint": "eye clinic"
  },
  {
    "id": "cr-33",
    "name": "SANCTA MARIA CLINIC",
    "address": "INDUSTRIAL LAYOUT ABAKPA OGOJA",
    "coordinates": { "lat": 6.66, "lng": 8.80 },
    "type": "Clinic",
    "services": ["General Consultation", "Minor Procedures", "Maternity"],
    "phone": "08069468616",
    "openingHours": "24/7",
    "imageUrl": "https://placehold.co/600x400.png",
    "dataAiHint": "small clinic"
  },
  {
    "id": "cr-34",
    "name": "ARUBAH DENTAL CLINIC- UNICAL ROAD",
    "address": "UNICAL HOTEL ROAD, OPPOSITE ANGLICAN CHURCH, CALABAR",
    "coordinates": { "lat": 4.95, "lng": 8.34 },
    "type": "Dental Clinic",
    "services": ["Dental Checkup", "Teeth Cleaning", "Fillings"],
    "phone": "08069726372",
    "openingHours": "Mon-Fri 9am-5pm",
    "imageUrl": "https://placehold.co/600x400.png",
    "dataAiHint": "dental clinic"
  },
  {
    "id": "cr-35",
    "name": "Mego Vision Clinic",
    "address": "54 Ndidem Usang Iso Road, Calabar",
    "coordinates": { "lat": 4.97, "lng": 8.34 },
    "type": "Optical Center",
    "services": ["Eye Examination", "Glasses", "Vision Therapy"],
    "phone": "08136725341",
    "openingHours": "Mon-Sat 9am-6pm",
    "imageUrl": "https://placehold.co/600x400.png",
    "dataAiHint": "vision clinic"
  }
]
