
[
  {
    "id": "rs-1",
    "name": "Acron Medical Consultants",
    "address": "NO1, ACRON AVENUE, BEHIND 28 STADIUM ROAD, G.R.A. PHASE IV, PORT HARCOURT",
    "coordinates": { "lat": 4.824, "lng": 7.033 },
    "type": "Hospital",
    "services": ["Emergency Care", "Specialist Consultation", "Surgery", "Diagnostics"],
    "phone": "07036612370",
    "openingHours": "24/7",
    "imageUrl": "https://placehold.co/600x400.png",
    "dataAiHint": "medical consultant"
  },
  {
    "id": "rs-2",
    "name": "Austine Rapha Clinic and Maternity",
    "address": "Port Harcourt",
    "coordinates": { "lat": 4.777, "lng": 7.013 },
    "type": "Hospital",
    "services": ["Maternity", "General Consultation", "Pediatrics", "Emergency Care"],
    "phone": "08064288002",
    "openingHours": "24/7",
    "imageUrl": "https://placehold.co/600x400.png",
    "dataAiHint": "maternity clinic"
  },
  {
    "id": "rs-3",
    "name": "Bechs Specialist Hospital",
    "address": "33, Psychiatric Hospital Road, Rumuigbo, Port Harcourt",
    "coordinates": { "lat": 4.845, "lng": 7.001 },
    "type": "Hospital",
    "services": ["Emergency Care", "Specialist Care", "Surgery", "Mental Health Support"],
    "phone": "08033130523",
    "openingHours": "24/7",
    "imageUrl": "https://placehold.co/600x400.png",
    "dataAiHint": "specialist hospital"
  },
  {
    "id": "rs-4",
    "name": "Corban Medicals Limited",
    "address": "22, 5th Street, Elekahia Housing Estate, Port harcourt, Rivers State",
    "coordinates": { "lat": 4.801, "lng": 7.022 },
    "type": "Hospital",
    "services": ["General Consultation", "Diagnostics", "Pharmacy", "Emergency Care"],
    "phone": "08079485422",
    "openingHours": "24/7",
    "imageUrl": "https://placehold.co/600x400.png",
    "dataAiHint": "medical center"
  },
  {
    "id": "rs-5",
    "name": "Datta Medical Centre Limited",
    "address": "4/5 EZE tata close Atali in Eneka-Iguwurta Road opposite Rosoco filling Station ,Close Tank bus",
    "coordinates": { "lat": 4.888, "lng": 6.985 },
    "type": "Hospital",
    "services": ["Emergency Care", "General Consultation", "Maternity", "Pharmacy"],
    "phone": "08033566185",
    "openingHours": "24/7",
    "imageUrl": "https://placehold.co/600x400.png",
    "dataAiHint": "medical center"
  },
  {
    "id": "rs-6",
    "name": "First Rivers Hospital",
    "address": "7/9 Old Aba Road, Rumuomasi/250 Aba Expressway PortHarcourt.",
    "coordinates": { "lat": 4.821, "lng": 7.045 },
    "type": "Hospital",
    "services": ["Emergency Care", "Surgery", "Diagnostics", "Specialist Consultation"],
    "phone": "08158493600",
    "openingHours": "24/7",
    "imageUrl": "https://placehold.co/600x400.png",
    "dataAiHint": "city hospital"
  },
  {
    "id": "rs-7",
    "name": "Kendox Medical Centre",
    "address": "7, Moses Chinda Avenue, off 194 Old Refinery Road, Elelenwon, Port Harcourt",
    "coordinates": { "lat": 4.828, "lng": 7.081 },
    "type": "Hospital",
    "services": ["General Consultation", "Maternity", "Pediatrics", "Emergency Care"],
    "phone": "09028115777",
    "openingHours": "24/7",
    "imageUrl": "https://placehold.co/600x400.png",
    "dataAiHint": "medical center"
  },
  {
    "id": "rs-8",
    "name": "New Heights Consultants",
    "address": "Plot 200, Rumuogba Estate by Bridge Bustop Beside Genesis GuestHouse Rumuogba",
    "coordinates": { "lat": 4.839, "lng": 7.039 },
    "type": "Hospital",
    "services": ["Specialist Consultation", "Health Checkups", "Diagnostics"],
    "phone": "07038738215",
    "openingHours": "Mon-Fri 9am-5pm",
    "imageUrl": "https://placehold.co/600x400.png",
    "dataAiHint": "medical consultant"
  },
  {
    "id": "rs-9",
    "name": "Pearl Clinics And Maternity",
    "address": "4 Manilla Pepple Street, D-line, Port Harcourt",
    "coordinates": { "lat": 4.795, "lng": 7.014 },
    "type": "Hospital",
    "services": ["Maternity", "Gynecology", "Pediatrics", "General Consultation"],
    "phone": "08064904995",
    "openingHours": "24/7",
    "imageUrl": "https://placehold.co/600x400.png",
    "dataAiHint": "maternity clinic"
  },
  {
    "id": "rs-10",
    "name": "Providence Clinic And Maternity",
    "address": "11, Railway Road, Behind Nitel, D-Line, PortHarcourt",
    "coordinates": { "lat": 4.794, "lng": 7.011 },
    "type": "Hospital",
    "services": ["Maternity", "General Consultation", "Emergency Care", "Vaccinations"],
    "phone": "08135175063",
    "openingHours": "24/7",
    "imageUrl": "https://placehold.co/600x400.png",
    "dataAiHint": "maternity clinic"
  },
  {
    "id": "rs-11",
    "name": "Raziela Specialist Clinic",
    "address": "7, William Ajikere Street, Stadium Road, PortHarcourt",
    "coordinates": { "lat": 4.822, "lng": 7.031 },
    "type": "Hospital",
    "services": ["Specialist Consultation", "Diagnostics", "Minor Procedures"],
    "phone": "+2349081275164",
    "openingHours": "Mon-Sat 8am-6pm",
    "imageUrl": "https://placehold.co/600x400.png",
    "dataAiHint": "specialist clinic"
  },
  {
    "id": "rs-12",
    "name": "Sonabel Medical Centre- Orazi",
    "address": "No 14, Owabie Road, Mile 4 Market Road, Off Ikwere Road, Orazi PortHarcourt",
    "coordinates": { "lat": 4.835, "lng": 6.995 },
    "type": "Hospital",
    "services": ["Emergency Care", "General Consultation", "Pharmacy", "Laboratory Services"],
    "phone": "08038674379",
    "openingHours": "24/7",
    "imageUrl": "https://placehold.co/600x400.png",
    "dataAiHint": "medical center"
  },
  {
    "id": "rs-13",
    "name": "Esteem Dental Clinic",
    "address": "42, Isioko Street, D-Line",
    "coordinates": { "lat": 4.798, "lng": 7.018 },
    "type": "Dental Clinic",
    "services": ["Dental Checkup", "Teeth Cleaning", "Fillings", "Whitening", "Extractions"],
    "phone": "08182858721",
    "openingHours": "Mon-Sat 9am-5pm",
    "imageUrl": "https://placehold.co/600x400.png",
    "dataAiHint": "dental clinic"
  },
  {
    "id": "rs-14",
    "name": "Beracca Eye Clinic Limited- Port harcourt",
    "address": "9, Rumuogba Estate Portharcourt by Genesis Bustop",
    "coordinates": { "lat": 4.840, "lng": 7.040 },
    "type": "Optical Center",
    "services": ["Eye Examination", "Glasses", "Contact Lenses", "Vision Therapy"],
    "phone": "08136915301",
    "openingHours": "Mon-Fri 8am-5pm",
    "imageUrl": "https://placehold.co/600x400.png",
    "dataAiHint": "eye clinic"
  },
  {
    "id": "rs-15",
    "name": "C and C Ophthalmics Limited",
    "address": "41, King Perekule street, GRA phase 2 , PortHarcourt",
    "coordinates": { "lat": 4.825, "lng": 7.018 },
    "type": "Optical Center",
    "services": ["Eye Examination", "Ophthalmic Surgery", "Designer Frames", "Contact Lenses"],
    "phone": "+2348153653341",
    "openingHours": "Mon-Sat 9am-6pm",
    "imageUrl": "https://placehold.co/600x400.png",
    "dataAiHint": "optical center"
  },
  {
    "id": "rs-16",
    "name": "Fimat Eye Clinic",
    "address": "40, NTA Road Mgbuoba PortHarcourt",
    "coordinates": { "lat": 4.855, "lng": 7.010 },
    "type": "Optical Center",
    "services": ["Eye Examination", "Glasses", "Contact Lenses"],
    "phone": "07032897011",
    "openingHours": "Mon-Fri 9am-6pm",
    "imageUrl": "https://placehold.co/600x400.png",
    "dataAiHint": "eye clinic"
  },
  {
    "id": "rs-17",
    "name": "Clean Springs Specialist Hospital",
    "address": "10, Marina close, Woji Estate road, PH",
    "coordinates": { "lat": 4.815, "lng": 7.075 },
    "type": "Hospital",
    "services": ["Specialist Consultation", "Surgery", "Emergency Care", "Diagnostics"],
    "phone": "08025798283",
    "openingHours": "24/7",
    "imageUrl": "https://placehold.co/600x400.png",
    "dataAiHint": "specialist hospital"
  },
  {
    "id": "rs-18",
    "name": "Meridian Hospital",
    "address": "21 IGBOKWE STREET, D/LINE,PORT HARCOURT, RIVERS STATE",
    "coordinates": { "lat": 4.796, "lng": 7.015 },
    "type": "Hospital",
    "services": ["Emergency Care", "Surgery", "Maternity", "Pediatrics", "ICU"],
    "phone": "08082826030",
    "openingHours": "24/7",
    "imageUrl": "https://placehold.co/600x400.png",
    "dataAiHint": "modern hospital"
  },
  {
    "id": "rs-19",
    "name": "Pamo Clinics And Hospital",
    "address": "NO 300 ABA ROAD, RUMUOMASI PORT HARCOURT.",
    "coordinates": { "lat": 4.823, "lng": 7.046 },
    "type": "Hospital",
    "services": ["Emergency Care", "General Consultation", "Surgery", "Specialist Care"],
    "phone": "09035807595",
    "openingHours": "24/7",
    "imageUrl": "https://placehold.co/600x400.png",
    "dataAiHint": "hospital clinic"
  },
  {
    "id": "rs-20",
    "name": "Mindaid Hospital",
    "address": "No. 8 rumuogba estate road, Port Harcourt",
    "coordinates": { "lat": 4.838, "lng": 7.041 },
    "type": "Hospital",
    "services": ["Mental Health", "Psychiatric Care", "Counseling", "Rehabilitation"],
    "phone": "8099637777",
    "openingHours": "24/7",
    "imageUrl": "https://placehold.co/600x400.png",
    "dataAiHint": "mental health"
  },
  {
    "id": "rs-21",
    "name": "Paragon Clinics And Imaging",
    "address": "96, Stadium Road, Portharcourt",
    "coordinates": { "lat": 4.821, "lng": 7.032 },
    "type": "Hospital",
    "services": ["Emergency Care", "Imaging", "Diagnostics", "General Consultation"],
    "phone": "08086666361",
    "openingHours": "24/7",
    "imageUrl": "https://placehold.co/600x400.png",
    "dataAiHint": "imaging clinic"
  },
  {
    "id": "rs-22",
    "name": "Shawsand Medical Centre",
    "address": "KM 14, PORTHARCOURT-ABA EXPRESSWAY",
    "coordinates": { "lat": 4.87, "lng": 7.09 },
    "type": "Hospital",
    "services": ["Emergency Care", "General Consultation", "Surgery", "Maternity"],
    "phone": "08181898220",
    "openingHours": "24/7",
    "imageUrl": "https://placehold.co/600x400.png",
    "dataAiHint": "medical center"
  },
  {
    "id": "rs-23",
    "name": "ST. Catherine's Specialist Hospital -Rivers",
    "address": "14, TRANS WOJI ROAD, WOJI PORT HARCOURT",
    "coordinates": { "lat": 4.814, "lng": 7.076 },
    "type": "Hospital",
    "services": ["Emergency Care", "Specialist Care", "Surgery", "Diagnostics"],
    "phone": "09087830739",
    "openingHours": "24/7",
    "imageUrl": "https://placehold.co/600x400.png",
    "dataAiHint": "specialist hospital"
  },
  {
    "id": "rs-24",
    "name": "Tehilah Children Hospital",
    "address": "10A MAXWELL ADOKI STREET OFF PETER ODILI ROAD PORT HARCOURT",
    "coordinates": { "lat": 4.802, "lng": 7.051 },
    "type": "Hospital",
    "services": ["Pediatrics", "Neonatal Care", "Emergency Care", "Vaccinations"],
    "phone": "08134047140",
    "openingHours": "24/7",
    "imageUrl": "https://placehold.co/600x400.png",
    "dataAiHint": "children hospital"
  },
  {
    "id": "rs-25",
    "name": "Ultimate Specialist Clinic And Hospital",
    "address": "NO 67, ROYAL AVENUE, OFF PETER ODILI, ABULOMA-OKURU LINK ROAD, PORT HARCOURT",
    "coordinates": { "lat": 4.782, "lng": 7.042 },
    "type": "Hospital",
    "services": ["Emergency Care", "Specialist Care", "Surgery", "General Consultation"],
    "phone": "08091040434",
    "openingHours": "24/7",
    "imageUrl": "https://placehold.co/600x400.png",
    "dataAiHint": "specialist hospital"
  },
  {
    "id": "rs-26",
    "name": "Sonabel Medical Centre - Eleme",
    "address": "15 Trailer Park, Old Onne Road, Ejamah, Eleme",
    "coordinates": { "lat": 4.778, "lng": 7.152 },
    "type": "Hospital",
    "services": ["Emergency Care", "General Consultation", "Pharmacy", "Laboratory Services"],
    "phone": "07065381930",
    "openingHours": "24/7",
    "imageUrl": "https://placehold.co/600x400.png",
    "dataAiHint": "medical center"
  },
  {
    "id": "rs-27",
    "name": "VISION CARE EYE CLINIC",
    "address": "PLOT 131/132, STADIUM ROAD, RUMUOMASI, PORT HARCOURT, RIVERS STATE.",
    "coordinates": { "lat": 4.82, "lng": 7.03 },
    "type": "Optical Center",
    "services": ["Eye Examination", "Glasses", "Contact Lenses", "Vision Therapy"],
    "phone": "08034928210",
    "openingHours": "Mon-Sat 9am-6pm",
    "imageUrl": "https://placehold.co/600x400.png",
    "dataAiHint": "eye clinic"
  },
  {
    "id": "rs-28",
    "name": "Bona Specialist dental and Implant Center- Port Harcourt",
    "address": "DR. PETER ODILI ROAD, PORT HARCOURT",
    "coordinates": { "lat": 4.801, "lng": 7.05 },
    "type": "Dental Clinic",
    "services": ["Dental Implants", "Dental Surgery", "Cosmetic Dentistry", "Dental Checkup"],
    "phone": "08033129073",
    "openingHours": "Mon-Fri 9am-5pm",
    "imageUrl": "https://placehold.co/600x400.png",
    "dataAiHint": "dental implant"
  },
  {
    "id": "rs-29",
    "name": "Atinu Critical Care Hospital",
    "address": "296 REFINERY ROAD, ELELENWON",
    "coordinates": { "lat": 4.829, "lng": 7.082 },
    "type": "Hospital",
    "services": ["Emergency Care", "ICU", "Critical Care", "Surgery"],
    "phone": "8038469013",
    "openingHours": "24/7",
    "imageUrl": "https://placehold.co/600x400.png",
    "dataAiHint": "critical care"
  },
  {
    "id": "rs-30",
    "name": "Cumi Medical Centre",
    "address": "2, LIFT UP CLOSE, OFF EZEGBAKAGBAKA ROAD, WOJI, PORT HARCOURT, RIVERS.",
    "coordinates": { "lat": 4.816, "lng": 7.077 },
    "type": "Hospital",
    "services": ["Emergency Care", "General Consultation", "Maternity"],
    "phone": "08103198838",
    "openingHours": "24/7",
    "imageUrl": "https://placehold.co/600x400.png",
    "dataAiHint": "medical center"
  },
  {
    "id": "rs-31",
    "name": "Green Care Medical Consultants",
    "address": "15 E W WORLU ROAD,AFTER OGOLOGO ROAD, OFF OBIWALI ROAD RUMUIGBO PORT HARCOURT",
    "coordinates": { "lat": 4.846, "lng": 7.002 },
    "type": "Hospital",
    "services": ["Specialist Consultation", "General Medicine", "Health Checkups"],
    "phone": "08064697006",
    "openingHours": "Mon-Fri 9am-5pm",
    "imageUrl": "https://placehold.co/600x400.png",
    "dataAiHint": "medical consultant"
  },
  {
    "id": "rs-32",
    "name": "Ofure Specialist",
    "address": "PLOT 65 OKPORO ROAD BEHIND ECOBANK OFF ABA ROAD ARTILLERY",
    "coordinates": { "lat": 4.832, "lng": 7.048 },
    "type": "Hospital",
    "services": ["Specialist Care", "Surgery", "Emergency Care", "General Consultation"],
    "phone": "08033101214",
    "openingHours": "24/7",
    "imageUrl": "https://placehold.co/600x400.png",
    "dataAiHint": "specialist hospital"
  },
  {
    "id": "rs-33",
    "name": "Rehoboth Specialist Hospital- Port Harcourt",
    "address": "2, WINNERS WAY, OFF AFAM STREET, D/LINE, PORT HARCOURT, RIVERS.",
    "coordinates": { "lat": 4.793, "lng": 7.016 },
    "type": "Hospital",
    "services": ["Specialist Care", "Surgery", "Maternity", "Diagnostics"],
    "phone": "08037800151",
    "openingHours": "24/7",
    "imageUrl": "https://placehold.co/600x400.png",
    "dataAiHint": "specialist hospital"
  },
  {
    "id": "rs-34",
    "name": "3-J Dental Clinic",
    "address": "PLOT 101, EAST-WEST ROAD, RUMUODARA, P/H",
    "coordinates": { "lat": 4.86, "lng": 7.01 },
    "type": "Dental Clinic",
    "services": ["Dental Checkup", "Teeth Cleaning", "Fillings", "Extractions"],
    "phone": "08071557277",
    "openingHours": "Mon-Fri 9am-6pm",
    "imageUrl": "https://placehold.co/600x400.png",
    "dataAiHint": "dental clinic"
  },
  {
    "id": "rs-35",
    "name": "CYNARD EYE CLINIC - TRANS AMADI PHC",
    "address": "PLOT 85/86 FHA, PETER ODILI ROAD, TRANS AMADI, PORT HARCOURT, RIVERS",
    "coordinates": { "lat": 4.803, "lng": 7.052 },
    "type": "Optical Center",
    "services": ["Eye Examination", "Glasses", "Contact Lenses"],
    "phone": "07062728573",
    "openingHours": "Mon-Sat 9am-6pm",
    "imageUrl": "https://placehold.co/600x400.png",
    "dataAiHint": "eye clinic"
  },
  {
    "id": "rs-36",
    "name": "CYNARD EYE CLINIC - WOJI PHC",
    "address": "PLOT 6 , CLOSE 4 ONUOKOLO LAYOUT TRANSWOJI ROAD WOJI , PORT HARCOURT, RIVERS.",
    "coordinates": { "lat": 4.813, "lng": 7.078 },
    "type": "Optical Center",
    "services": ["Eye Examination", "Glasses", "Contact Lenses"],
    "phone": "07013493248",
    "openingHours": "Mon-Sat 9am-6pm",
    "imageUrl": "https://placehold.co/600x400.png",
    "dataAiHint": "eye clinic"
  },
  {
    "id": "rs-37",
    "name": "Dominion Optometry Clinic",
    "address": "NO 8 OLD ABA ROAD RUMUOGBA PORT HARCOURT",
    "coordinates": { "lat": 4.83, "lng": 7.04 },
    "type": "Optical Center",
    "services": ["Eye Examination", "Glasses", "Contact Lenses"],
    "phone": "08035365554",
    "openingHours": "Mon-Sat 9am-6pm",
    "imageUrl": "https://placehold.co/600x400.png",
    "dataAiHint": "optometry clinic"
  },
  {
    "id": "rs-38",
    "name": "The Ophthalmic Specialists",
    "address": "37, WOJI ROAD, GRA PHASE 2, PORT HARCOURT, RIVERS.",
    "coordinates": { "lat": 4.812, "lng": 7.024 },
    "type": "Optical Center",
    "services": ["Eye Examination", "Ophthalmic Surgery", "Specialist Eye Care"],
    "phone": "08058958555",
    "openingHours": "Mon-Fri 9am-5pm",
    "imageUrl": "https://placehold.co/600x400.png",
    "dataAiHint": "eye specialist"
  },
  {
    "id": "rs-39",
    "name": "Vonnie Vision Eye Care Consultants",
    "address": "CLOSE 8, PLOT 2B ELEKAHIA HOUSING ESTATE,opposite liberation stadium, PORT HARCOURT",
    "coordinates": { "lat": 4.802, "lng": 7.023 },
    "type": "Optical Center",
    "services": ["Eye Examination", "Glasses", "Contact Lenses", "Designer Frames"],
    "phone": "08033414967",
    "openingHours": "Mon-Sat 9am-6pm",
    "imageUrl": "https://placehold.co/600x400.png",
    "dataAiHint": "eyecare center"
  },
  {
    "id": "rs-40",
    "name": "JOSPHINNS EYE CLINIC",
    "address": "NO 14 KHANA STREET DLINE OFF OLU OBASANJO ROAD PORT HARCOURT",
    "coordinates": { "lat": 4.797, "lng": 7.016 },
    "type": "Optical Center",
    "services": ["Eye Examination", "Glasses", "Contact Lenses"],
    "phone": "07035360969",
    "openingHours": "Mon-Fri 9am-5pm",
    "imageUrl": "https://placehold.co/600x400.png",
    "dataAiHint": "eye clinic"
  },
  {
    "id": "rs-41",
    "name": "Hilton Clinics",
    "address": "2 EJIKWU WIKE CLOSE, OFF ADA GEORGE BY WHIMPEY, ROAD, MILE 4, PORT HARCOURT.",
    "coordinates": { "lat": 4.84, "lng": 6.99 },
    "type": "Hospital",
    "services": ["Emergency Care", "General Consultation", "Maternity", "Surgery"],
    "phone": "07089029932",
    "openingHours": "24/7",
    "imageUrl": "https://placehold.co/600x400.png",
    "dataAiHint": "hospital clinic"
  },
  {
    "id": "rs-42",
    "name": "Heroeland Specialist Hospital",
    "address": "17 UNITY AVENUE RUMUOKWUTA, BY PIN PLACE, NTA ROAD",
    "coordinates": { "lat": 4.85, "lng": 7.01 },
    "type": "Hospital",
    "services": ["Emergency Care", "Specialist Consultation", "Surgery", "Diagnostics"],
    "phone": "07063274003",
    "openingHours": "24/7",
    "imageUrl": "https://placehold.co/600x400.png",
    "dataAiHint": "specialist hospital"
  },
  {
    "id": "rs-43",
    "name": "Life Forte Specialist Hospital",
    "address": "3 ORLU-WOSU STREET, OFF UOE ROAD, RUMUOLUMENI, PORT HARCOURT, RIVERS STATE",
    "coordinates": { "lat": 4.77, "lng": 6.95 },
    "type": "Hospital",
    "services": ["Emergency Care", "Specialist Consultation", "Surgery", "Maternity"],
    "phone": "07034462808",
    "openingHours": "24/7",
    "imageUrl": "https://placehold.co/600x400.png",
    "dataAiHint": "specialist hospital"
  },
  {
    "id": "rs-44",
    "name": "Best Smilez Dental Clinic",
    "address": "4 NZIMIRO STREET, OLD GRA",
    "coordinates": { "lat": 4.79, "lng": 7.01 },
    "type": "Dental Clinic",
    "services": ["Dental Checkup", "Teeth Cleaning", "Cosmetic Dentistry"],
    "phone": "08101344144",
    "openingHours": "Mon-Fri 9am-5pm",
    "imageUrl": "https://placehold.co/600x400.png",
    "dataAiHint": "dental clinic"
  },
  {
    "id": "rs-45",
    "name": "Cimbak Dental Clinic - Rumuogba",
    "address": "No. 1, Nwankpa close ( Beside Savvy Sunny Suites ), off Okporo road, Rumuogba, Port Harcourt.",
    "coordinates": { "lat": 4.84, "lng": 7.04 },
    "type": "Dental Clinic",
    "services": ["Dental Checkup", "Teeth Cleaning", "Fillings"],
    "phone": "08186374954",
    "openingHours": "Mon-Fri 9am-5pm",
    "imageUrl": "https://placehold.co/600x400.png",
    "dataAiHint": "dental clinic"
  },
  {
    "id": "rs-46",
    "name": "Princess Medical Center(Signature)",
    "address": "No 5 Ndabros street Nkpogu Transamadi",
    "coordinates": { "lat": 4.8, "lng": 7.06 },
    "type": "Hospital",
    "services": ["Emergency Care", "General Consultation", "Diagnostics"],
    "phone": "09062968351",
    "openingHours": "24/7",
    "imageUrl": "https://placehold.co/600x400.png",
    "dataAiHint": "medical center"
  },
  {
    "id": "rs-47",
    "name": "Shield Specialist Hospital Limited",
    "address": "Plot4, Close D, Peace Valley Estate Transwoji Portharcourt",
    "coordinates": { "lat": 4.81, "lng": 7.08 },
    "type": "Hospital",
    "services": ["Emergency Care", "Specialist Consultation", "Surgery"],
    "phone": "08033194541",
    "openingHours": "24/7",
    "imageUrl": "https://placehold.co/600x400.png",
    "dataAiHint": "specialist hospital"
  },
  {
    "id": "rs-48",
    "name": "Total Care Dental Clinic",
    "address": "274 EVENT PLACE , 111 AIRPORT ROAD OPP. MOBIL FILLING STATION BY ELIOZU RD RUMUODOMANYA",
    "coordinates": { "lat": 4.87, "lng": 7.0 },
    "type": "Dental Clinic",
    "services": ["Dental Checkup", "Family Dentistry", "Teeth Cleaning"],
    "phone": "08085059961",
    "openingHours": "Mon-Sat 8am-6pm",
    "imageUrl": "https://placehold.co/600x400.png",
    "dataAiHint": "dental clinic"
  },
  {
    "id": "rs-49",
    "name": "Opti- Vue Eyecare Ltd",
    "address": "3 IGBODO STREET, OLD GRA PORT HARCOURT",
    "coordinates": { "lat": 4.79, "lng": 7.02 },
    "type": "Optical Center",
    "services": ["Eye Examination", "Glasses", "Contact Lenses"],
    "phone": "08139257808",
    "openingHours": "Mon-Fri 9am-5pm",
    "imageUrl": "https://placehold.co/600x400.png",
    "dataAiHint": "eyecare center"
  },
  {
    "id": "rs-50",
    "name": "Truvision Limited, Portharcourt",
    "address": "112, ABA RD, GARRISON",
    "coordinates": { "lat": 4.81, "lng": 7.02 },
    "type": "Optical Center",
    "services": ["Eye Examination", "Glasses", "Designer Frames"],
    "phone": "07041813675",
    "openingHours": "Mon-Sat 9am-6pm",
    "imageUrl": "https://placehold.co/600x400.png",
    "dataAiHint": "optical store"
  },
  {
    "id": "rs-51",
    "name": "Opti-care eye clinic",
    "address": "plot 19 stadium road",
    "coordinates": { "lat": 4.82, "lng": 7.03 },
    "type": "Optical Center",
    "services": ["Eye Examination", "Glasses", "Contact Lenses"],
    "phone": "08055065093",
    "openingHours": "Mon-Fri 9am-5pm",
    "imageUrl": "https://placehold.co/600x400.png",
    "dataAiHint": "eye clinic"
  },
  {
    "id": "rs-52",
    "name": "Perfect Sight Eye Centre",
    "address": "80 Stadium road",
    "coordinates": { "lat": 4.82, "lng": 7.031 },
    "type": "Optical Center",
    "services": ["Eye Examination", "Glasses", "Vision Therapy"],
    "phone": "08036050236",
    "openingHours": "Mon-Fri 8am-6pm",
    "imageUrl": "https://placehold.co/600x400.png",
    "dataAiHint": "eye center"
  },
  {
    "id": "rs-53",
    "name": "Springs Medical Services Portharcourt",
    "address": "458 IKWERRE ROAD,KALA B/STOP,RUMEPIRIKOM,P/HARCOURT",
    "coordinates": { "lat": 4.84, "lng": 7.01 },
    "type": "Hospital",
    "services": ["Emergency Care", "General Consultation", "Diagnostics"],
    "phone": "08030891309",
    "openingHours": "24/7",
    "imageUrl": "https://placehold.co/600x400.png",
    "dataAiHint": "medical service"
  },
  {
    "id": "rs-54",
    "name": "Garland Hospital",
    "address": "no 2 Okporo road Rumuehinwo,Housing Estate Rukpokwu opp Divine Power Ministry",
    "coordinates": { "lat": 4.88, "lng": 6.99 },
    "type": "Hospital",
    "services": ["Emergency Care", "General Consultation", "Maternity"],
    "phone": "08038842065",
    "openingHours": "24/7",
    "imageUrl": "https://placehold.co/600x400.png",
    "dataAiHint": "hospital building"
  },
  {
    "id": "rs-55",
    "name": "Sterling Specialist Clinic",
    "address": "5 King Jaja Street Portharcourt",
    "coordinates": { "lat": 4.78, "lng": 7.01 },
    "type": "Hospital",
    "services": ["Specialist Consultation", "General Medicine", "Emergency Care"],
    "phone": "08185645145",
    "openingHours": "24/7",
    "imageUrl": "https://placehold.co/600x400.png",
    "dataAiHint": "specialist clinic"
  },
  {
    "id": "rs-56",
    "name": "Oasis specialist hospital-Port Harcourt.",
    "address": "plot 1,block 2 ,Federal Housing Estate, Rumuodumanya",
    "coordinates": { "lat": 4.87, "lng": 7.01 },
    "type": "Hospital",
    "services": ["Emergency Care", "Specialist Consultation", "Surgery"],
    "phone": "08150643160",
    "openingHours": "24/7",
    "imageUrl": "https://placehold.co/600x400.png",
    "dataAiHint": "specialist hospital"
  },
  {
    "id": "rs-57",
    "name": "Morning Star Eye Clinic",
    "address": "67 Rumuola Road Gittele Drew House",
    "coordinates": { "lat": 4.82, "lng": 7.03 },
    "type": "Optical Center",
    "services": ["Eye Examination", "Glasses", "Contact Lenses"],
    "phone": "07031685045",
    "openingHours": "Mon-Fri 9am-5pm",
    "imageUrl": "https://placehold.co/600x400.png",
    "dataAiHint": "eye clinic"
  },
  {
    "id": "rs-58",
    "name": "Purple ice Consults",
    "address": "16 East west Road",
    "coordinates": { "lat": 4.86, "lng": 7.02 },
    "type": "Dental Clinic",
    "services": ["Dental Consultation", "Teeth Whitening"],
    "phone": "08036694777",
    "openingHours": "By Appointment",
    "imageUrl": "https://placehold.co/600x400.png",
    "dataAiHint": "dental office"
  },
  {
    "id": "rs-59",
    "name": "Total Care Dental Care",
    "address": "Big Treat Mall, no 1 Stadium Road opp Air Force Base",
    "coordinates": { "lat": 4.82, "lng": 7.029 },
    "type": "Dental Clinic",
    "services": ["Dental Checkup", "Family Dentistry", "Teeth Cleaning"],
    "phone": "08085059961",
    "openingHours": "Mon-Sat 9am-6pm",
    "imageUrl": "https://placehold.co/600x400.png",
    "dataAiHint": "dental clinic"
  },
  {
    "id": "rs-60",
    "name": "Garland Eye Clinic",
    "address": "Big Treat Shopping Mall,Rukpokwu",
    "coordinates": { "lat": 4.88, "lng": 7.0 },
    "type": "Optical Center",
    "services": ["Eye Examination", "Glasses", "Contact Lenses"],
    "phone": "08140201170",
    "openingHours": "Mon-Sat 9am-6pm",
    "imageUrl": "https://placehold.co/600x400.png",
    "dataAiHint": "eye clinic"
  },
  {
    "id": "rs-61",
    "name": "Adanta Children Hospital",
    "address": "44 Evo Road GRA 2",
    "coordinates": { "lat": 4.821, "lng": 7.021 },
    "type": "Hospital",
    "services": ["Pediatrics", "Neonatal Care", "Emergency Care", "Vaccinations"],
    "phone": "08181839172",
    "openingHours": "24/7",
    "imageUrl": "https://placehold.co/600x400.png",
    "dataAiHint": "children hospital"
  },
  {
    "id": "rs-62",
    "name": "Castle Clinic",
    "address": "7b Shell Location Road off Rumuola road",
    "coordinates": { "lat": 4.822, "lng": 7.022 },
    "type": "Hospital",
    "services": ["General Consultation", "Emergency Care", "Health Checkups", "Pharmacy"],
    "phone": "084 666 282",
    "openingHours": "24/7",
    "imageUrl": "https://placehold.co/600x400.png",
    "dataAiHint": "clinic building"
  },
  {
    "id": "rs-63",
    "name": "Magnum Nuvon Medical Centre",
    "address": "18 Canon Ndu Street Elelenwo",
    "coordinates": { "lat": 4.823, "lng": 7.023 },
    "type": "Hospital",
    "services": ["Emergency Care", "General Consultation", "Diagnostics", "Pharmacy"],
    "phone": "09095430838",
    "openingHours": "24/7",
    "imageUrl": "https://placehold.co/600x400.png",
    "dataAiHint": "medical center"
  },
  {
    "id": "rs-64",
    "name": "Shiloh Medical Care",
    "address": "15 Jetty road Abuloma",
    "coordinates": { "lat": 4.761, "lng": 7.041 },
    "type": "Hospital",
    "services": ["Emergency Care", "General Consultation", "Maternity", "Pharmacy"],
    "phone": "2348060095763",
    "openingHours": "24/7",
    "imageUrl": "https://placehold.co/600x400.png",
    "dataAiHint": "medical care"
  },
  {
    "id": "rs-65",
    "name": "Sight way Eye care and optical services limited",
    "address": "Emerald plaza sterling/pharmacy junction Akpajo-Peter Odili link Road gbalagam woji",
    "coordinates": { "lat": 4.811, "lng": 7.061 },
    "type": "Optical Center",
    "services": ["Eye Examination", "Glasses", "Contact Lenses", "Designer Frames"],
    "phone": "8076794242",
    "openingHours": "Mon-Sat 9am-6pm",
    "imageUrl": "https://placehold.co/600x400.png",
    "dataAiHint": "eyecare center"
  },
  {
    "id": "rs-66",
    "name": "Cova Care Specialist Hospital and Endoscopy Centre",
    "address": "No 8 Main Street, off Farm Road 2 G.U AKE Road Eliozu",
    "coordinates": { "lat": 4.871, "lng": 6.991 },
    "type": "Hospital",
    "services": ["Endoscopy", "Specialist Consultation", "Emergency Care", "Surgery"],
    "phone": "08182731100",
    "openingHours": "24/7",
    "imageUrl": "https://placehold.co/600x400.png",
    "dataAiHint": "specialist hospital"
  },
  {
    "id": "rs-67",
    "name": "NOXFORD HOSPITAL LIMITED",
    "address": "Plot 96 tom inko-tariah avenue, Portharcourt",
    "coordinates": { "lat": 4.812, "lng": 7.012 },
    "type": "Hospital",
    "services": ["Emergency Care", "General Consultation", "Surgery", "Pharmacy"],
    "phone": "08035089086",
    "openingHours": "24/7",
    "imageUrl": "https://placehold.co/600x400.png",
    "dataAiHint": "hospital building"
  },
  {
    "id": "rs-68",
    "name": "ANSETT DIAGNOSTIC HOSPITAL LTD",
    "address": "9 New Layout Drive , Oginigba, Trans-amadi",
    "coordinates": { "lat": 4.813, "lng": 7.043 },
    "type": "Hospital",
    "services": ["Diagnostics", "Imaging", "Laboratory Services", "General Consultation"],
    "phone": "08149455836",
    "openingHours": "24/7",
    "imageUrl": "https://placehold.co/600x400.png",
    "dataAiHint": "diagnostic hospital"
  },
  {
    "id": "rs-69",
    "name": "Niger Optical-Emenike",
    "address": "18 Emenike Street",
    "coordinates": { "lat": 4.792, "lng": 7.013 },
    "type": "Optical Center",
    "services": ["Eye Examination", "Glasses", "Contact Lenses"],
    "phone": "08118919460",
    "openingHours": "Mon-Sat 8am-6pm",
    "imageUrl": "https://placehold.co/600x400.png",
    "dataAiHint": "optical store"
  },
  {
    "id": "rs-70",
    "name": "Niger Optical-Rumuibekwe",
    "address": "Rumuibekwe Opposite Shell Quarters, PH",
    "coordinates": { "lat": 4.833, "lng": 7.034 },
    "type": "Optical Center",
    "services": ["Eye Examination", "Glasses", "Contact Lenses"],
    "phone": "08118919459",
    "openingHours": "Mon-Sat 8am-6pm",
    "imageUrl": "https://placehold.co/600x400.png",
    "dataAiHint": "optical store"
  },
  {
    "id": "rs-71",
    "name": "Myra Dental Clinic",
    "address": "Close 2 ,Block 8B Elekahia Estate Ph",
    "coordinates": { "lat": 4.804, "lng": 7.025 },
    "type": "Dental Clinic",
    "services": ["Dental Checkup", "Teeth Cleaning", "Fillings"],
    "phone": "07064311568",
    "openingHours": "Mon-Fri 9am-5pm",
    "imageUrl": "https://placehold.co/600x400.png",
    "dataAiHint": "dental clinic"
  },
  {
    "id": "rs-72",
    "name": "RAPHA PHYSIOTHERAPY CLINIC",
    "address": "36 ELIOPARANWO ROAD OFF ADA GEORGE ROAD",
    "coordinates": { "lat": 4.844, "lng": 6.986 },
    "type": "Physiotherapy Clinic",
    "services": ["Physical Therapy", "Rehabilitation", "Sports Injury", "Post-operative care"],
    "phone": "08136183371",
    "openingHours": "Mon-Fri 9am-5pm",
    "imageUrl": "https://placehold.co/600x400.png",
    "dataAiHint": "physiotherapy clinic"
  },
  {
    "id": "rs-73",
    "name": "HEALTH WISE HOSPITAL",
    "address": "3 Benin Street Dline ph",
    "coordinates": { "lat": 4.795, "lng": 7.017 },
    "type": "Hospital",
    "services": ["Emergency Care", "General Consultation", "Health Checkups", "Wellness"],
    "phone": "08130660041",
    "openingHours": "24/7",
    "imageUrl": "https://placehold.co/600x400.png",
    "dataAiHint": "hospital building"
  },
  {
    "id": "rs-74",
    "name": "MORNING STAR HOSPITAL",
    "address": "19/21 Isiokpo Street Dline",
    "coordinates": { "lat": 4.796, "lng": 7.018 },
    "type": "Hospital",
    "services": ["Emergency Care", "General Consultation", "Surgery", "Maternity"],
    "phone": "08036717364",
    "openingHours": "24/7",
    "imageUrl": "https://placehold.co/600x400.png",
    "dataAiHint": "hospital building"
  },
  {
    "id": "rs-75",
    "name": "BETHESDA FAMILY HOSPITAL",
    "address": "Plot 18 Eastern By pass",
    "coordinates": { "lat": 4.787, "lng": 7.047 },
    "type": "Hospital",
    "services": ["Family Medicine", "Maternity", "Pediatrics", "Emergency Care"],
    "phone": "08104547100",
    "openingHours": "24/7",
    "imageUrl": "https://placehold.co/600x400.png",
    "dataAiHint": "family hospital"
  },
  {
    "id": "rs-76",
    "name": "MORNING STAR HOSPITAL ( ONNE )",
    "address": "95 Harbour Road",
    "coordinates": { "lat": 4.718, "lng": 7.158 },
    "type": "Hospital",
    "services": ["Emergency Care", "General Consultation", "Surgery", "Maternity"],
    "phone": "08182695544",
    "openingHours": "24/7",
    "imageUrl": "https://placehold.co/600x400.png",
    "dataAiHint": "hospital building"
  },
  {
    "id": "rs-77",
    "name": "Mina's Urological /Specialist Hospital",
    "address": "House 25, Road 6, Freedom Estate off Sars Road",
    "coordinates": { "lat": 4.881, "lng": 6.989 },
    "type": "Hospital",
    "services": ["Urology", "Specialist Consultation", "Surgery", "Emergency Care"],
    "phone": "08168399287",
    "openingHours": "24/7",
    "imageUrl": "https://placehold.co/600x400.png",
    "dataAiHint": "urology hospital"
  },
  {
    "id": "rs-78",
    "name": "WESTHILL HOSPITAL",
    "address": "4 Wogu street Dline",
    "coordinates": { "lat": 4.799, "lng": 7.019 },
    "type": "Hospital",
    "services": ["Emergency Care", "General Consultation", "Surgery", "Maternity"],
    "phone": "08159072963",
    "openingHours": "24/7",
    "imageUrl": "https://placehold.co/600x400.png",
    "dataAiHint": "hospital building"
  },
  {
    "id": "rs-79",
    "name": "OPTI VUE",
    "address": "11 Igbodo Street Old GRA",
    "coordinates": { "lat": 4.789, "lng": 7.021 },
    "type": "Optical Center",
    "services": ["Eye Examination", "Glasses", "Contact Lenses"],
    "phone": "08139257808",
    "openingHours": "Mon-Sat 9am-6pm",
    "imageUrl": "https://placehold.co/600x400.png",
    "dataAiHint": "optical center"
  },
  {
    "id": "rs-80",
    "name": "Platinum premier Medical Center",
    "address": "4 Fimie(tere-ama)road off Abuloma road",
    "coordinates": { "lat": 4.771, "lng": 7.043 },
    "type": "Hospital",
    "services": ["Emergency Care", "General Consultation", "Health Checkups", "Pharmacy"],
    "phone": "09098227965",
    "openingHours": "24/7",
    "imageUrl": "https://placehold.co/600x400.png",
    "dataAiHint": "medical center"
  },
  {
    "id": "rs-81",
    "name": "ONNE MEDICAL CENTER",
    "address": "Harbour Road Onne",
    "coordinates": { "lat": 4.719, "lng": 7.159 },
    "type": "Hospital",
    "services": ["Emergency Care", "General Consultation", "Pharmacy"],
    "phone": "08067158834",
    "openingHours": "24/7",
    "imageUrl": "https://placehold.co/600x400.png",
    "dataAiHint": "medical center"
  },
  {
    "id": "rs-82",
    "name": "Rivportals Hospital",
    "address": "Agbeta Road opp Seven Day Adventist Onne",
    "coordinates": { "lat": 4.72, "lng": 7.16 },
    "type": "Hospital",
    "services": ["Emergency Care", "General Consultation", "Maternity"],
    "phone": "08080128353",
    "openingHours": "24/7",
    "imageUrl": "https://placehold.co/600x400.png",
    "dataAiHint": "hospital building"
  },
  {
    "id": "rs-83",
    "name": "Anuzi Eye Clinic",
    "address": "189 old refinery road elelenwo opposite primary care centre in Elelenwo roundabout junction",
    "coordinates": { "lat": 4.827, "lng": 7.083 },
    "type": "Optical Center",
    "services": ["Eye Examination", "Glasses", "Contact Lenses"],
    "phone": "08034215669",
    "openingHours": "Mon-Sat 9am-6pm",
    "imageUrl": "https://placehold.co/600x400.png",
    "dataAiHint": "eye clinic"
  },
  {
    "id": "rs-84",
    "name": "HEALTHBRIDGE MEDICAL CONSULTANTS",
    "address": "Flat 1/A-B Abacha Road GRA Phase 3",
    "coordinates": { "lat": 4.826, "lng": 7.019 },
    "type": "Hospital",
    "services": ["Specialist Consultation", "General Medicine", "Health Checkups"],
    "phone": "08095216350",
    "openingHours": "By Appointment",
    "imageUrl": "https://placehold.co/600x400.png",
    "dataAiHint": "medical consultant"
  },
  {
    "id": "rs-85",
    "name": "CEDAR EYE CLINIC",
    "address": "Flat 1/A-B Abacha Road GRA Phase 3",
    "coordinates": { "lat": 4.827, "lng": 7.02 },
    "type": "Optical Center",
    "services": ["Eye Examination", "Glasses", "Contact Lenses"],
    "phone": "08037778803",
    "openingHours": "Mon-Sat 9am-6pm",
    "imageUrl": "https://placehold.co/600x400.png",
    "dataAiHint": "eye clinic"
  },
  {
    "id": "rs-86",
    "name": "NOBSAMS HOSPITAL",
    "address": "44 Trans-amadi Oginigba",
    "coordinates": { "lat": 4.814, "lng": 7.044 },
    "type": "Hospital",
    "services": ["Emergency Care", "General Consultation", "Surgery", "Pharmacy"],
    "phone": "08182132215",
    "openingHours": "24/7",
    "imageUrl": "https://placehold.co/600x400.png",
    "dataAiHint": "hospital building"
  },
  {
    "id": "rs-87",
    "name": "GOSHEN CLINIC",
    "address": "No 8 close 8 Elekahia Estate",
    "coordinates": { "lat": 4.805, "lng": 7.026 },
    "type": "Hospital",
    "services": ["General Consultation", "Emergency Care", "Maternity"],
    "phone": "08097982090",
    "openingHours": "24/7",
    "imageUrl": "https://placehold.co/600x400.png",
    "dataAiHint": "clinic building"
  },
  {
    "id": "rs-88",
    "name": "THE EYE SURGERY AND LASSER CENTRE",
    "address": "#5 Obanoban Street, Off Evo Road, GRA phase 2",
    "coordinates": { "lat": 4.822, "lng": 7.023 },
    "type": "Optical Center",
    "services": ["Eye Surgery", "Laser Vision Correction", "Specialist Eye Care"],
    "phone": "8033125646",
    "openingHours": "By Appointment",
    "imageUrl": "https://placehold.co/600x400.png",
    "dataAiHint": "laser eye"
  },
  {
    "id": "rs-89",
    "name": "AMAZING GRACE CLINIC",
    "address": "Unity Close, behind Divine Power Ministry Airport Road Rumuodumanya",
    "coordinates": { "lat": 4.872, "lng": 7.011 },
    "type": "Clinic",
    "services": ["General Consultation", "First Aid", "Health Checkups"],
    "phone": "08115503321",
    "openingHours": "24/7",
    "imageUrl": "https://placehold.co/600x400.png",
    "dataAiHint": "small clinic"
  },
  {
    "id": "rs-90",
    "name": "DANFERD SPECIALIST HOSPITAL",
    "address": "246 Ada George Road",
    "coordinates": { "lat": 4.845, "lng": 6.987 },
    "type": "Hospital",
    "services": ["Emergency Care", "Specialist Consultation", "Surgery", "Diagnostics"],
    "phone": "09095941831",
    "openingHours": "24/7",
    "imageUrl": "https://placehold.co/600x400.png",
    "dataAiHint": "specialist hospital"
  },
  {
    "id": "rs-91",
    "name": "OLIVET CLINIC",
    "address": "18 EDE STREET OGBUNABALI",
    "coordinates": { "lat": 4.815, "lng": 7.015 },
    "type": "Hospital",
    "services": ["General Consultation", "Maternity", "Emergency Care"],
    "phone": "08037058579",
    "openingHours": "24/7",
    "imageUrl": "https://placehold.co/600x400.png",
    "dataAiHint": "clinic building"
  },
  {
    "id": "rs-92",
    "name": "PREMIUM PHYSIOTHERAY AND DIAGNOSTICS LTD",
    "address": "16 AWKA STREET BESIDE FRSC ABA ROAD PH",
    "coordinates": { "lat": 4.816, "lng": 7.026 },
    "type": "Physiotherapy Clinic",
    "services": ["Physical Therapy", "Rehabilitation", "Diagnostics", "Sports Injury"],
    "phone": "08035472879",
    "openingHours": "Mon-Fri 9am-5pm",
    "imageUrl": "https://placehold.co/600x400.png",
    "dataAiHint": "physiotherapy clinic"
  },
  {
    "id": "rs-93",
    "name": "ATLANTIC MEDICAL CENTRE",
    "address": "76C EMEKUKU STREET DLINE",
    "coordinates": { "lat": 4.797, "lng": 7.019 },
    "type": "Hospital",
    "services": ["Emergency Care", "General Consultation", "Health Checkups", "Pharmacy"],
    "phone": "08189145220",
    "openingHours": "24/7",
    "imageUrl": "https://placehold.co/600x400.png",
    "dataAiHint": "medical center"
  },
  {
    "id": "rs-94",
    "name": "WELLNESS HOSPITALS AND DIAGNOSTICS LIMITED",
    "address": "317 Old Refinery Road Elelenwo Akpajo",
    "coordinates": { "lat": 4.828, "lng": 7.084 },
    "type": "Hospital",
    "services": ["Wellness", "Health Checkups", "Diagnostics", "General Consultation"],
    "phone": "08086892620",
    "openingHours": "24/7",
    "imageUrl": "https://placehold.co/600x400.png",
    "dataAiHint": "wellness hospital"
  },
  {
    "id": "rs-95",
    "name": "PLATINUM EYE CARE",
    "address": "4 Chief Nwuke Street by Bewac Junction Trans amadi",
    "coordinates": { "lat": 4.815, "lng": 7.045 },
    "type": "Optical Center",
    "services": ["Eye Examination", "Glasses", "Contact Lenses", "Designer Frames"],
    "phone": "08177770139",
    "openingHours": "Mon-Sat 9am-6pm",
    "imageUrl": "https://placehold.co/600x400.png",
    "dataAiHint": "eyecare center"
  },
  {
    "id": "rs-96",
    "name": "ASHFORD & PATRICE CLINIC LTD",
    "address": "3B MANNILLA PEPPLE STREET DLINE",
    "coordinates": { "lat": 4.796, "lng": 7.013 },
    "type": "Hospital",
    "services": ["General Consultation", "Emergency Care", "Minor Procedures"],
    "phone": "08173858266",
    "openingHours": "24/7",
    "imageUrl": "https://placehold.co/600x400.png",
    "dataAiHint": "clinic building"
  },
  {
    "id": "rs-97",
    "name": "ST. MARTINS HOSPITAL",
    "address": "62 Stadium road",
    "coordinates": { "lat": 4.823, "lng": 7.033 },
    "type": "Hospital",
    "services": ["Emergency Care", "General Consultation", "Surgery", "Maternity"],
    "phone": "08028056241",
    "openingHours": "24/7",
    "imageUrl": "https://placehold.co/600x400.png",
    "dataAiHint": "church hospital"
  },
  {
    "id": "rs-98",
    "name": "ZITADEL MEDICALS AND DIAGNOSTICS( RIVERS)",
    "address": "58 PROF OKUJAGU ROAD OFF TRANS AMADI",
    "coordinates": { "lat": 4.816, "lng": 7.046 },
    "type": "Hospital",
    "services": ["Diagnostics", "Imaging", "Laboratory Services", "General Consultation"],
    "phone": "8150584388",
    "openingHours": "24/7",
    "imageUrl": "https://placehold.co/600x400.png",
    "dataAiHint": "diagnostic hospital"
  },
  {
    "id": "rs-99",
    "name": "EBONY HOSPITAL",
    "address": "9 EBONY/ORAZI ROAD",
    "coordinates": { "lat": 4.836, "lng": 6.996 },
    "type": "Hospital",
    "services": ["Emergency Care", "General Consultation", "Surgery", "Pharmacy"],
    "phone": "08038737300",
    "openingHours": "24/7",
    "imageUrl": "https://placehold.co/600x400.png",
    "dataAiHint": "hospital building"
  },
  {
    "id": "rs-100",
    "name": "HEBGREEN DENTAL CLINIC",
    "address": "19 Afam street Dline",
    "coordinates": { "lat": 4.794, "lng": 7.017 },
    "type": "Dental Clinic",
    "services": ["Dental Checkup", "Teeth Cleaning", "Fillings"],
    "phone": "08034186722",
    "openingHours": "Mon-Fri 9am-5pm",
    "imageUrl": "https://placehold.co/600x400.png",
    "dataAiHint": "dental clinic"
  },
  {
    "id": "rs-101",
    "name": "SOPHIKE MEDICAL CENTRE",
    "address": "Plot 9 Road 7 Federal Housing Estate off Peter Odili Road, Transamadi",
    "coordinates": { "lat": 4.805, "lng": 7.055 },
    "type": "Hospital",
    "services": ["Emergency Care", "General Consultation", "Maternity", "Surgery"],
    "phone": "+2348025814113",
    "openingHours": "24/7",
    "imageUrl": "https://placehold.co/600x400.png",
    "dataAiHint": "medical center"
  },
  {
    "id": "rs-102",
    "name": "LAVINDA EYE SPECIALISTHOSPITAL AND LASSER CENTRE",
    "address": "3 Omobu Close, off Campbell Avenue by Somitel Hotel, off Dr. Peter Odili Road, Port Harcourt",
    "coordinates": { "lat": 4.806, "lng": 7.056 },
    "type": "Optical Center",
    "services": ["Eye Surgery", "Laser Vision Correction", "Specialist Eye Care", "Eye Examination"],
    "phone": "08144477840",
    "openingHours": "Mon-Sat 9am-6pm",
    "imageUrl": "https://placehold.co/600x400.png",
    "dataAiHint": "eye hospital"
  },
  {
    "id": "rs-103",
    "name": "ZITADEL DENTAL CLINIC( RIVERS)",
    "address": "58 PROF OKUJAGU ROAD OFF TRANS AMADI",
    "coordinates": { "lat": 4.817, "lng": 7.047 },
    "type": "Dental Clinic",
    "services": ["Dental Checkup", "Teeth Cleaning", "Fillings", "Extractions"],
    "phone": "07038759990",
    "openingHours": "Mon-Fri 9am-5pm",
    "imageUrl": "https://placehold.co/600x400.png",
    "dataAiHint": "dental clinic"
  },
  {
    "id": "rs-104",
    "name": "Krystal Optics - GRA PH",
    "address": "89 king Perekule street,GRA PH",
    "coordinates": { "lat": 4.826, "lng": 7.026 },
    "type": "Optical Center",
    "services": ["Eye Examination", "Glasses", "Contact Lenses", "Designer Frames"],
    "phone": "07011162583",
    "openingHours": "Mon-Sat 9am-6pm",
    "imageUrl": "https://placehold.co/600x400.png",
    "dataAiHint": "optical store"
  },
  {
    "id": "rs-105",
    "name": "Krystal Optics - Ikwerre",
    "address": "8 Ikwerre road,PH",
    "coordinates": { "lat": 4.786, "lng": 7.006 },
    "type": "Optical Center",
    "services": ["Eye Examination", "Glasses", "Contact Lenses"],
    "phone": "08086660536",
    "openingHours": "Mon-Sat 9am-6pm",
    "imageUrl": "https://placehold.co/600x400.png",
    "dataAiHint": "optical store"
  },
  {
    "id": "rs-106",
    "name": "Krystal Optics -SparMall Portharcourt",
    "address": "Spar mall, Port Harcourt",
    "coordinates": { "lat": 4.834, "lng": 7.035 },
    "type": "Optical Center",
    "services": ["Eye Examination", "Glasses", "Designer Frames"],
    "phone": "08086660535",
    "openingHours": "Mon-Sun 10am-8pm",
    "imageUrl": "https://placehold.co/600x400.png",
    "dataAiHint": "mall optician"
  },
  {
    "id": "rs-107",
    "name": "Contemporary Dental Clinic- Rivers",
    "address": "61,Aba road(near Govt craft centre) Portharcourt River state",
    "coordinates": { "lat": 4.818, "lng": 7.028 },
    "type": "Dental Clinic",
    "services": ["Dental Checkup", "Teeth Cleaning", "Fillings", "Cosmetic Dentistry"],
    "phone": "8091429169",
    "openingHours": "Mon-Sat 9am-5pm",
    "imageUrl": "https://placehold.co/600x400.png",
    "dataAiHint": "dental clinic"
  },
  {
    "id": "rs-108",
    "name": "Photizo Eye clinic",
    "address": "Plot 33 Eastern bypass Port Harcourt.",
    "coordinates": { "lat": 4.788, "lng": 7.048 },
    "type": "Optical Center",
    "services": ["Eye Examination", "Glasses", "Contact Lenses"],
    "phone": "08038853154",
    "openingHours": "Mon-Fri 8am-6pm",
    "imageUrl": "https://placehold.co/600x400.png",
    "dataAiHint": "eye clinic"
  },
  {
    "id": "rs-109",
    "name": "ST. HARRISON HOSPITAL",
    "address": "8A OLD REFINERY ROAD AKPAJO",
    "coordinates": { "lat": 4.829, "lng": 7.099 },
    "type": "Hospital",
    "services": ["Emergency Care", "General Consultation", "Maternity", "Surgery"],
    "phone": "08137503997",
    "openingHours": "24/7",
    "imageUrl": "https://placehold.co/600x400.png",
    "dataAiHint": "hospital building"
  },
  {
    "id": "rs-110",
    "name": "STEVENSON MEDICARE HOSPITAL",
    "address": "28 IWOWARI AVENUE BY AEROPLANE DRIVE TRANSAMADI",
    "coordinates": { "lat": 4.819, "lng": 7.049 },
    "type": "Hospital",
    "services": ["Emergency Care", "General Consultation", "Diagnostics", "Pharmacy"],
    "phone": "08177448250",
    "openingHours": "24/7",
    "imageUrl": "https://placehold.co/600x400.png",
    "dataAiHint": "hospital building"
  },
  {
    "id": "rs-111",
    "name": "RIDCOL HOSPITAL (IGWURUTA)",
    "address": "OPP STEMCO CONSTRUCTION COMPANY GREATER PH IGWURUTA-ALI",
    "coordinates": { "lat": 4.931, "lng": 7.011 },
    "type": "Hospital",
    "services": ["Emergency Care", "General Consultation", "Maternity", "Community Health"],
    "phone": "08103228468",
    "openingHours": "24/7",
    "imageUrl": "https://placehold.co/600x400.png",
    "dataAiHint": "rural hospital"
  },
  {
    "id": "rs-112",
    "name": "RIDCOL HOSPITAL (DLINE)",
    "address": "26 EMEKUKU STREET DLINE",
    "coordinates": { "lat": 4.798, "lng": 7.021 },
    "type": "Hospital",
    "services": ["Emergency Care", "General Consultation", "Surgery", "Pharmacy"],
    "phone": "09064174977",
    "openingHours": "24/7",
    "imageUrl": "https://placehold.co/600x400.png",
    "dataAiHint": "hospital building"
  },
  {
    "id": "rs-113",
    "name": "DE-ROCA MISSION HOSPITAL",
    "address": "1 CHIEF DOUGLAS STREET BY LORD P HOTEL ROAD OFF IGWURUTA-ENEKA ROAD IGWURUTA",
    "coordinates": { "lat": 4.932, "lng": 7.012 },
    "type": "Hospital",
    "services": ["Emergency Care", "Maternity", "Community Health", "General Consultation"],
    "phone": "08142604771",
    "openingHours": "24/7",
    "imageUrl": "https://placehold.co/600x400.png",
    "dataAiHint": "mission hospital"
  },
  {
    "id": "rs-114",
    "name": "WHYTEVILLE DENTAL CLINIC AND BRACES CENTRE",
    "address": "9 STADIUM ROAD BY NOVOTEL HOTEL",
    "coordinates": { "lat": 4.824, "lng": 7.034 },
    "type": "Dental Clinic",
    "services": ["Orthodontics (Braces)", "Dental Checkup", "Cosmetic Dentistry"],
    "phone": "07037136672",
    "openingHours": "Mon-Sat 9am-6pm",
    "imageUrl": "https://placehold.co/600x400.png",
    "dataAiHint": "dental braces"
  },
  {
    "id": "rs-115",
    "name": "OPTOVILLE EYE CARE",
    "address": "DIAMOND HOUSE, 620 IKWERRE ROAD, OPPOSITE M.C.C, RUMUIGBO",
    "coordinates": { "lat": 4.846, "lng": 7.007 },
    "type": "Optical Center",
    "services": ["Eye Examination", "Glasses", "Contact Lenses", "Designer Frames"],
    "phone": "08036686875",
    "openingHours": "Mon-Sat 8am-7pm",
    "imageUrl": "https://placehold.co/600x400.png",
    "dataAiHint": "eyecare center"
  },
  {
    "id": "rs-116",
    "name": "ROS DENTAL CLINIC",
    "address": "NO. 5 AGUDAMA STREET, D/LINE",
    "coordinates": { "lat": 4.799, "lng": 7.022 },
    "type": "Dental Clinic",
    "services": ["Dental Checkup", "Teeth Cleaning", "Fillings"],
    "phone": "08033403536",
    "openingHours": "Mon-Fri 9am-5pm",
    "imageUrl": "https://placehold.co/600x400.png",
    "dataAiHint": "dental clinic"
  },
  {
    "id": "rs-117",
    "name": "DEXCEL EYE CENTER",
    "address": "24 STADIUM ROAD",
    "coordinates": { "lat": 4.825, "lng": 7.035 },
    "type": "Optical Center",
    "services": ["Eye Examination", "Specialist Eye Care", "Glasses"],
    "phone": "08162444444",
    "openingHours": "Mon-Sat 9am-6pm",
    "imageUrl": "https://placehold.co/600x400.png",
    "dataAiHint": "eye center"
  },
  {
    "id": "rs-118",
    "name": "FIRST DOMINION MANDATE HOSPITAL",
    "address": "OMPADEC ROAD OFF AIRPORT OMUNOBO IGWURUTA",
    "coordinates": { "lat": 4.933, "lng": 7.013 },
    "type": "Hospital",
    "services": ["Emergency Care", "General Consultation", "Maternity", "Pharmacy"],
    "phone": "07082174998",
    "openingHours": "24/7",
    "imageUrl": "https://placehold.co/600x400.png",
    "dataAiHint": "hospital building"
  },
  {
    "id": "rs-119",
    "name": "RAMBOD EYE CLINIC",
    "address": "5 Agudama street Dline",
    "coordinates": { "lat": 4.8, "lng": 7.023 },
    "type": "Optical Center",
    "services": ["Eye Examination", "Glasses", "Contact Lenses"],
    "phone": "08033093808",
    "openingHours": "Mon-Fri 9am-5pm",
    "imageUrl": "https://placehold.co/600x400.png",
    "dataAiHint": "eye clinic"
  },
  {
    "id": "rs-120",
    "name": "MUJE CLINIC LTD",
    "address": "1 Chinyere Ihunwo Close, Rumuesara Eneka",
    "coordinates": { "lat": 4.89, "lng": 6.99 },
    "type": "Hospital",
    "services": ["Emergency Care", "General Consultation", "Maternity"],
    "phone": "07018226871",
    "openingHours": "24/7",
    "imageUrl": "https://placehold.co/600x400.png",
    "dataAiHint": "clinic building"
  },
  {
    "id": "rs-121",
    "name": "ST.JUDE MEDICAL CLINIC",
    "address": "40 OLD REFINERY ROAD ELELNWO",
    "coordinates": { "lat": 4.827, "lng": 7.085 },
    "type": "Hospital",
    "services": ["Emergency Care", "General Consultation", "Diagnostics"],
    "phone": "08109826952",
    "openingHours": "24/7",
    "imageUrl": "https://placehold.co/600x400.png",
    "dataAiHint": "clinic hospital"
  },
  {
    "id": "rs-122",
    "name": "DOCTORS MEDIVILLE HOSPITAL",
    "address": "4 CHIEF EJIMS STREET RUMUOMASI, PORT HARCOURT",
    "coordinates": { "lat": 4.825, "lng": 7.045 },
    "type": "Hospital",
    "services": ["Emergency Care", "General Consultation", "Surgery", "Pharmacy"],
    "phone": "8122678934",
    "openingHours": "24/7",
    "imageUrl": "https://placehold.co/600x400.png",
    "dataAiHint": "hospital building"
  },
  {
    "id": "rs-123",
    "name": "ST MARGT CLINICAL SERVICES",
    "address": "2 BENSON STREET MGBUOSIMINI ,RUMUEME AGIP",
    "coordinates": { "lat": 4.815, "lng": 6.995 },
    "type": "Hospital",
    "services": ["Clinical Services", "General Consultation", "Diagnostics"],
    "phone": "08183120286",
    "openingHours": "24/7",
    "imageUrl": "https://placehold.co/600x400.png",
    "dataAiHint": "clinic building"
  },
  {
    "id": "rs-124",
    "name": "PHAREZ SPRING WELLNESS CENTRE",
    "address": "1 MARGISTRATE COURT ROAD FOT/FLT ROAD ONNE BESIDE MODEL PRIMARY HEALTH CENTRE",
    "coordinates": { "lat": 4.717, "lng": 7.157 },
    "type": "Physiotherapy Clinic",
    "services": ["Wellness", "Physiotherapy", "Rehabilitation"],
    "phone": "08063756245",
    "openingHours": "Mon-Fri 9am-5pm",
    "imageUrl": "https://placehold.co/600x400.png",
    "dataAiHint": "wellness center"
  },
  {
    "id": "rs-125",
    "name": "DANIC VISIONS EYE CARE (IWOFE ROAD)",
    "address": "56 iwofe Rd adjacent pepperoni off Ada George/Iwofe Junction Rumuepirikon",
    "coordinates": { "lat": 4.83, "lng": 6.97 },
    "type": "Optical Center",
    "services": ["Eye Examination", "Glasses", "Contact Lenses"],
    "phone": "08104235760",
    "openingHours": "Mon-Sat 9am-6pm",
    "imageUrl": "https://placehold.co/600x400.png",
    "dataAiHint": "eye care"
  },
  {
    "id": "rs-126",
    "name": "DANIC VISIONS EYE CARE(Spring branch)",
    "address": "Mall flora Sars Road off Obiri Ikwerre rd",
    "coordinates": { "lat": 4.882, "lng": 6.992 },
    "type": "Optical Center",
    "services": ["Eye Examination", "Glasses", "Contact Lenses"],
    "phone": "8104240186",
    "openingHours": "Mon-Sat 10am-7pm",
    "imageUrl": "https://placehold.co/600x400.png",
    "dataAiHint": "mall optician"
  },
  {
    "id": "rs-127",
    "name": "HEALTHCREST SPECIALIST HOSPITAL",
    "address": "34 Mbonu Street D/Line",
    "coordinates": { "lat": 4.8, "lng": 7.025 },
    "type": "Hospital",
    "services": ["Emergency Care", "Specialist Consultation", "Surgery"],
    "phone": "7030587967",
    "openingHours": "24/7",
    "imageUrl": "https://placehold.co/600x400.png",
    "dataAiHint": "specialist hospital"
  },
  {
    "id": "rs-128",
    "name": "NEW MILE ONE HOSPITAL",
    "address": "15 Emenike street Mile 1 Diobu",
    "coordinates": { "lat": 4.793, "lng": 7.014 },
    "type": "Hospital",
    "services": ["Emergency Care", "General Consultation", "Pharmacy"],
    "phone": "08132184968",
    "openingHours": "24/7",
    "imageUrl": "https://placehold.co/600x400.png",
    "dataAiHint": "hospital building"
  },
  {
    "id": "rs-129",
    "name": "GBEYE HOSPITAL( OMOKU)",
    "address": "16 Ahaoda Road Omoku, Ogba/Egbema/Ndoni L.G.A, Rivers State.",
    "coordinates": { "lat": 5.34, "lng": 6.65 },
    "type": "Hospital",
    "services": ["Emergency Care", "General Consultation", "Community Health"],
    "phone": "08038736693",
    "openingHours": "24/7",
    "imageUrl": "https://placehold.co/600x400.png",
    "dataAiHint": "rural hospital"
  },
  {
    "id": "rs-130",
    "name": "ST MARTINS DENTAL CLINIC",
    "address": "62 Stadium road",
    "coordinates": { "lat": 4.823, "lng": 7.034 },
    "type": "Dental Clinic",
    "services": ["Dental Checkup", "Teeth Cleaning", "Fillings", "Extractions"],
    "phone": "08129917699",
    "openingHours": "Mon-Fri 9am-5pm",
    "imageUrl": "https://placehold.co/600x400.png",
    "dataAiHint": "dental clinic"
  },
  {
    "id": "rs-131",
    "name": "ETHEL DENTAL CLINIC",
    "address": "18 Trans woji road Elelenwo",
    "coordinates": { "lat": 4.828, "lng": 7.086 },
    "type": "Dental Clinic",
    "services": ["Dental Checkup", "Teeth Cleaning", "Fillings"],
    "phone": "08032014035",
    "openingHours": "Mon-Fri 9am-5pm",
    "imageUrl": "https://placehold.co/600x400.png",
    "dataAiHint": "dental clinic"
  },
  {
    "id": "rs-132",
    "name": "ST. PETERS CLINIC ( BONNY)",
    "address": "19 New layout Bonny River State",
    "coordinates": { "lat": 4.45, "lng": 7.16 },
    "type": "Hospital",
    "services": ["Emergency Care", "General Consultation", "Community Health"],
    "phone": "08065857149",
    "openingHours": "24/7",
    "imageUrl": "https://placehold.co/600x400.png",
    "dataAiHint": "island clinic"
  },
  {
    "id": "rs-133",
    "name": "NAF REFERENCE HOSPITAL",
    "address": "Naf Reference hospital Rumomasi Airforce Base",
    "coordinates": { "lat": 4.82, "lng": 7.04 },
    "type": "Hospital",
    "services": ["Emergency Care", "Specialist Consultation", "Military Health"],
    "phone": "08065174744",
    "openingHours": "24/7",
    "imageUrl": "https://placehold.co/600x400.png",
    "dataAiHint": "airforce hospital"
  },
  {
    "id": "rs-134",
    "name": "DELTA SPECIALIST HOSPITAL",
    "address": "69 HOSPITAL ROAD BONNY",
    "coordinates": { "lat": 4.46, "lng": 7.17 },
    "type": "Hospital",
    "services": ["Emergency Care", "Specialist Consultation", "Surgery"],
    "phone": "07061529750",
    "openingHours": "24/7",
    "imageUrl": "https://placehold.co/600x400.png",
    "dataAiHint": "specialist hospital"
  },
  {
    "id": "rs-135",
    "name": "GENERATIONS SPECIALIST HOSPITAL",
    "address": "7 Habitat Drive along NTA-Choba road, Portharcourt",
    "coordinates": { "lat": 4.855, "lng": 6.955 },
    "type": "Hospital",
    "services": ["Emergency Care", "Specialist Consultation", "Maternity"],
    "phone": "08037099224",
    "openingHours": "24/7",
    "imageUrl": "https://placehold.co/600x400.png",
    "dataAiHint": "specialist hospital"
  },
  {
    "id": "rs-136",
    "name": "Mizpah Medical Centre",
    "address": "PLOT 54, FIRST ROAD, OFF LNG ROAD, AMADI-AMA RESIDENTIAL LAYOUT, AMADI-AMA.",
    "coordinates": { "lat": 4.78, "lng": 7.03 },
    "type": "Hospital",
    "services": ["Emergency Care", "General Consultation", "Pharmacy"],
    "phone": "08061381943",
    "openingHours": "24/7",
    "imageUrl": "https://placehold.co/600x400.png",
    "dataAiHint": "medical center"
  },
  {
    "id": "rs-137",
    "name": "PEARLMINE EYE CARE",
    "address": "AKC PLAZA 59 MARKET ROAD ,RUMUOMASI",
    "coordinates": { "lat": 4.822, "lng": 7.042 },
    "type": "Optical Center",
    "services": ["Eye Examination", "Glasses", "Contact Lenses"],
    "phone": "07069301040",
    "openingHours": "Mon-Sat 9am-6pm",
    "imageUrl": "https://placehold.co/600x400.png",
    "dataAiHint": "eyecare center"
  },
  {
    "id": "rs-138",
    "name": "BAREKE MEMORIAL HOSPITAL",
    "address": "No.6 Afrique Close Opposite Emma Dominion School East west Road, Rumuekini Rivers State.",
    "coordinates": { "lat": 4.875, "lng": 6.975 },
    "type": "Hospital",
    "services": ["Emergency Care", "General Consultation", "Maternity"],
    "phone": "08140604303",
    "openingHours": "24/7",
    "imageUrl": "https://placehold.co/600x400.png",
    "dataAiHint": "memorial hospital"
  },
  {
    "id": "rs-139",
    "name": "PERFECT IMAGE EYE CARE",
    "address": "Inside Image Diagnostics, 9b Eligbam road off rumuola road",
    "coordinates": { "lat": 4.824, "lng": 7.024 },
    "type": "Optical Center",
    "services": ["Eye Examination", "Glasses", "Diagnostics"],
    "phone": "08036495521",
    "openingHours": "Mon-Sat 9am-6pm",
    "imageUrl": "https://placehold.co/600x400.png",
    "dataAiHint": "eyecare center"
  },
  {
    "id": "rs-140",
    "name": "TRUE SMILE DENTAL CLINIC",
    "address": "50 WOJI ROAD BESIDE THE RAILWAY WOJI, PORT HARCOURT",
    "coordinates": { "lat": 4.811, "lng": 7.071 },
    "type": "Dental Clinic",
    "services": ["Dental Checkup", "Teeth Cleaning", "Cosmetic Dentistry"],
    "phone": "08062894930",
    "openingHours": "Mon-Sat 9am-5pm",
    "imageUrl": "https://placehold.co/600x400.png",
    "dataAiHint": "dental clinic"
  },
  {
    "id": "rs-141",
    "name": "TRUE SMILE DENTAL CLINIC ( BONNY ISLAND)",
    "address": "WILBROSROAD OPPOSITE CHRISTMAS APOSTOLIC CHURCH BONNY ISLAND",
    "coordinates": { "lat": 4.451, "lng": 7.161 },
    "type": "Dental Clinic",
    "services": ["Dental Checkup", "Teeth Cleaning", "Fillings", "Extractions"],
    "phone": "08162525607",
    "openingHours": "Mon-Sat 9am-5pm",
    "imageUrl": "https://placehold.co/600x400.png",
    "dataAiHint": "dental clinic"
  },
  {
    "id": "rs-142",
    "name": "ENVISION EYE CLINIC",
    "address": "50 Mbaonu Street Dline portharcourt",
    "coordinates": { "lat": 4.798, "lng": 7.02 },
    "type": "Optical Center",
    "services": ["Eye Examination", "Glasses", "Contact Lenses"],
    "phone": "08038411326",
    "openingHours": "Mon-Sat 9am-6pm",
    "imageUrl": "https://placehold.co/600x400.png",
    "dataAiHint": "eye clinic"
  },
  {
    "id": "rs-143",
    "name": "ST CHARLES SURGERY",
    "address": "Akiama Rd, Bonny",
    "coordinates": { "lat": 4.452, "lng": 7.162 },
    "type": "Hospital",
    "services": ["Surgery", "Emergency Care", "General Consultation"],
    "phone": "08038660720",
    "openingHours": "24/7",
    "imageUrl": "https://placehold.co/600x400.png",
    "dataAiHint": "surgery hospital"
  },
  {
    "id": "rs-144",
    "name": "SONABEL EYE CLINIC",
    "address": "No 14, Owabie Road, Mile 4 Market Road, Off Ikwere Road, Orazi PortHarcourt",
    "coordinates": { "lat": 4.835, "lng": 6.995 },
    "type": "Optical Center",
    "services": ["Eye Examination", "Glasses", "Contact Lenses"],
    "phone": "08038674379",
    "openingHours": "Mon-Sat 9am-6pm",
    "imageUrl": "https://placehold.co/600x400.png",
    "dataAiHint": "eye clinic"
  },
  {
    "id": "rs-145",
    "name": "SONABEL DENTAL CLINIC",
    "address": "No 14, Owabie Road, Mile 4 Market Road, Off Ikwere Road, Orazi PortHarcourt",
    "coordinates": { "lat": 4.835, "lng": 6.995 },
    "type": "Dental Clinic",
    "services": ["Dental Checkup", "Teeth Cleaning", "Fillings"],
    "phone": "08038674379",
    "openingHours": "Mon-Sat 9am-5pm",
    "imageUrl": "https://placehold.co/600x400.png",
    "dataAiHint": "dental clinic"
  },
  {
    "id": "rs-146",
    "name": "OLIVET EYE CLINIC",
    "address": "No.312 Ikwerre rd mile 4 Rumueme Port Harcourt",
    "coordinates": { "lat": 4.83, "lng": 6.98 },
    "type": "Optical Center",
    "services": ["Eye Examination", "Glasses", "Contact Lenses"],
    "phone": "08036979384",
    "openingHours": "Mon-Sat 9am-6pm",
    "imageUrl": "https://placehold.co/600x400.png",
    "dataAiHint": "eye clinic"
  },
  {
    "id": "rs-147",
    "name": "FORNNEX EYE CLINIC",
    "address": "94 OBI-WALI ROAD RIVERS STATE",
    "coordinates": { "lat": 4.84, "lng": 7.0 },
    "type": "Optical Center",
    "services": ["Eye Examination", "Glasses", "Contact Lenses"],
    "phone": "08104213028",
    "openingHours": "Mon-Sat 9am-6pm",
    "imageUrl": "https://placehold.co/600x400.png",
    "dataAiHint": "eye clinic"
  },
  {
    "id": "rs-148",
    "name": "C GREEN EYE CARE CENTER",
    "address": "129 NTA ROAD MGBUOBA PORT HARCOURT",
    "coordinates": { "lat": 4.856, "lng": 7.011 },
    "type": "Optical Center",
    "services": ["Eye Examination", "Glasses", "Contact Lenses", "Designer Frames"],
    "phone": "08089868286",
    "openingHours": "Mon-Sat 9am-6pm",
    "imageUrl": "https://placehold.co/600x400.png",
    "dataAiHint": "eyecare center"
  },
  {
    "id": "rs-149",
    "name": "GBEYE HOSPITAL (AHOADA)",
    "address": "52 OMOKU ROAD OPP CONOIL FILLING STATION AHOADA",
    "coordinates": { "lat": 5.08, "lng": 6.65 },
    "type": "Hospital",
    "services": ["Emergency Care", "General Consultation", "Community Health"],
    "phone": "08121515134",
    "openingHours": "24/7",
    "imageUrl": "https://placehold.co/600x400.png",
    "dataAiHint": "rural hospital"
  },
  {
    "id": "rs-150",
    "name": "GBEYE HOSPITAL ( PORTHARCOURT)",
    "address": "4 Destiny drive, behind Tonino filling station off Eliopranwo road Ada George PH",
    "coordinates": { "lat": 4.846, "lng": 6.988 },
    "type": "Hospital",
    "services": ["Emergency Care", "General Consultation", "Surgery", "Pharmacy"],
    "phone": "08103138388",
    "openingHours": "24/7",
    "imageUrl": "https://placehold.co/600x400.png",
    "dataAiHint": "hospital building"
  },
  {
    "id": "rs-151",
    "name": "TRUVINE SPECIALIST HOSPITAL",
    "address": "No 3 Omuokpor farm road ,Airport road by NEPA Transformer opp Hydropec filling station,school road junction Igwuruta Ali",
    "coordinates": { "lat": 4.934, "lng": 7.014 },
    "type": "Hospital",
    "services": ["Emergency Care", "Specialist Consultation", "Surgery"],
    "phone": "+2348033413772",
    "openingHours": "24/7",
    "imageUrl": "https://placehold.co/600x400.png",
    "dataAiHint": "specialist hospital"
  },
  {
    "id": "rs-152",
    "name": "DIVINE TOUCH SPECIALIST HOSPITAL",
    "address": "129 NTA ROAD MGBUOBA PORT HARCOURT",
    "coordinates": { "lat": 4.857, "lng": 7.012 },
    "type": "Hospital",
    "services": ["Emergency Care", "Specialist Consultation", "Surgery", "Maternity"],
    "phone": "08036725098",
    "openingHours": "24/7",
    "imageUrl": "https://placehold.co/600x400.png",
    "dataAiHint": "specialist hospital"
  },
  {
    "id": "rs-153",
    "name": "PAN OJ CLINIC",
    "address": "68 MISSION ROAD BONNY ISLAND",
    "coordinates": { "lat": 4.453, "lng": 7.163 },
    "type": "Hospital",
    "services": ["Emergency Care", "General Consultation", "Community Health"],
    "phone": "+2348136168260",
    "openingHours": "24/7",
    "imageUrl": "https://placehold.co/600x400.png",
    "dataAiHint": "island clinic"
  },
  {
    "id": "rs-154",
    "name": "BEULAH SPECIALIST HOSPITAL",
    "address": "No 11 Wobo road Rumuolumeni, Portharcourt",
    "coordinates": { "lat": 4.771, "lng": 6.951 },
    "type": "Hospital",
    "services": ["Emergency Care", "Specialist Consultation", "Surgery"],
    "phone": "08150768762",
    "openingHours": "24/7",
    "imageUrl": "https://placehold.co/600x400.png",
    "dataAiHint": "specialist hospital"
  },
  {
    "id": "rs-155",
    "name": "IMMANUEL LIFE DIALYSIS CENTRE",
    "address": "31 ISIOKPO STREET, OPPOSITE THE FOOTBALL FIELD, D/LINE, PORT HARCOURT, RIVERS STATE",
    "coordinates": { "lat": 4.797, "lng": 7.021 },
    "type": "Clinic",
    "services": ["Dialysis", "Nephrology", "Specialist Care"],
    "phone": "08033411192",
    "openingHours": "Mon-Sat 8am-6pm",
    "imageUrl": "https://placehold.co/600x400.png",
    "dataAiHint": "dialysis center"
  },
  {
    "id": "rs-156",
    "name": "HEALTHBRIDGE EYE CLINIC",
    "address": "PLOTF1/A-B ABACHA ROAD GRA PHASE 3 PORT HARCOURT",
    "coordinates": { "lat": 4.828, "lng": 7.021 },
    "type": "Optical Center",
    "services": ["Eye Examination", "Glasses", "Contact Lenses"],
    "phone": "09087688505",
    "openingHours": "Mon-Sat 9am-6pm",
    "imageUrl": "https://placehold.co/600x400.png",
    "dataAiHint": "eye clinic"
  },
  {
    "id": "rs-157",
    "name": "Prestige Hospital and Maternity Ltd",
    "address": "Plot 3 Elijiji Street opposite Shining Light Fast food Rukpokwu Port Harcourt",
    "coordinates": { "lat": 4.881, "lng": 7.001 },
    "type": "Hospital",
    "services": ["Emergency Care", "Maternity", "General Consultation", "Pharmacy"],
    "phone": "07039272126",
    "openingHours": "24/7",
    "imageUrl": "https://placehold.co/600x400.png",
    "dataAiHint": "maternity hospital"
  },
  {
    "id": "rs-158",
    "name": "DOXA EYE CLINIC",
    "address": "319 Aba road opp mtn office oil mill , portharcourt",
    "coordinates": { "lat": 4.83, "lng": 7.05 },
    "type": "Optical Center",
    "services": ["Eye Examination", "Glasses", "Contact Lenses"],
    "phone": "08027426558",
    "openingHours": "Mon-Sat 9am-6pm",
    "imageUrl": "https://placehold.co/600x400.png",
    "dataAiHint": "eye clinic"
  },
  {
    "id": "rs-159",
    "name": "NOBLE MEDICAL CONSULTANTS AND FERTILITY CENTRE",
    "address": "2, Love close, off Odaranwere road, opp Larritel Hotels, Mgbuoba, Port Harcourt, Rivers state.",
    "coordinates": { "lat": 4.858, "lng": 7.013 },
    "type": "Hospital",
    "services": ["Fertility", "Specialist Consultation", "Gynecology"],
    "phone": "09035098070",
    "openingHours": "Mon-Fri 9am-5pm",
    "imageUrl": "https://placehold.co/600x400.png",
    "dataAiHint": "fertility clinic"
  },
  {
    "id": "rs-160",
    "name": "PENNUEL EYE CLINIC",
    "address": "278 PH/ABA EXPRESS WAY OPPOSITE SHELL RESIDENTIAL AREA PORTHARCOURT",
    "coordinates": { "lat": 4.831, "lng": 7.051 },
    "type": "Optical Center",
    "services": ["Eye Examination", "Glasses", "Contact Lenses"],
    "phone": "08137211918",
    "openingHours": "Mon-Sat 9am-6pm",
    "imageUrl": "https://placehold.co/600x400.png",
    "dataAiHint": "eye clinic"
  },
  {
    "id": "rs-161",
    "name": "ORTHOPLAST SURGICAL CONSULTANT LIMITED",
    "address": "2 JUMBO CLOSE OFF NWOGU STREET RUMOMASI PORTHARCOURT",
    "coordinates": { "lat": 4.826, "lng": 7.046 },
    "type": "Hospital",
    "services": ["Emergency Care", "Orthopedic Surgery", "Surgical Consultation"],
    "phone": "08107118182",
    "openingHours": "24/7",
    "imageUrl": "https://placehold.co/600x400.png",
    "dataAiHint": "orthopedic surgery"
  },
  {
    "id": "rs-162",
    "name": "OBANI CLINIC",
    "address": "77B WOJI ROAD, G.R.A PHASE II, PORT HARCOURT, RIVERS STATE, NIGERIA",
    "coordinates": { "lat": 4.813, "lng": 7.025 },
    "type": "Hospital",
    "services": ["Emergency Care", "General Consultation", "Diagnostics"],
    "phone": "08097740867",
    "openingHours": "24/7",
    "imageUrl": "https://placehold.co/600x400.png",
    "dataAiHint": "clinic building"
  },
  {
    "id": "rs-163",
    "name": "STERLING DENTAL CLINIC Woji",
    "address": "18 Chief Tony Chukwu Street Off Alcon Road Off Circular Road Woji Port Harcourt.",
    "coordinates": { "lat": 4.812, "lng": 7.072 },
    "type": "Dental Clinic",
    "services": ["Dental Checkup", "Teeth Cleaning", "Fillings"],
    "phone": "08036122239",
    "openingHours": "Mon-Sat 9am-5pm",
    "imageUrl": "https://placehold.co/600x400.png",
    "dataAiHint": "dental clinic"
  },
  {
    "id": "rs-164",
    "name": "STERLING DENTAL CLINICS -ELEKAHIA",
    "address": "26 Stadium Road, Elekahia, Port Harcourt",
    "coordinates": { "lat": 4.826, "lng": 7.036 },
    "type": "Dental Clinic",
    "services": ["Dental Checkup", "Teeth Cleaning", "Fillings"],
    "phone": "08036122239",
    "openingHours": "Mon-Sat 9am-5pm",
    "imageUrl": "https://placehold.co/600x400.png",
    "dataAiHint": "dental clinic"
  },
  {
    "id": "rs-165",
    "name": "ALPHONSO HOSPITAL",
    "address": "18 ELELENWO-WOJI ROAD ELELENWO PORTHARCOURT",
    "coordinates": { "lat": 4.829, "lng": 7.089 },
    "type": "Hospital",
    "services": ["Emergency Care", "General Consultation", "Surgery", "Maternity"],
    "phone": "08099249657",
    "openingHours": "24/7",
    "imageUrl": "https://placehold.co/600x400.png",
    "dataAiHint": "hospital building"
  },
  {
    "id": "rs-166",
    "name": "ST MARY MOTHER OF MERCY HOSPITAL",
    "address": "68 Ogbatai road Woji Portharcourt",
    "coordinates": { "lat": 4.814, "lng": 7.074 },
    "type": "Hospital",
    "services": ["Emergency Care", "Maternity", "General Consultation", "Community Health"],
    "phone": "09055651362",
    "openingHours": "24/7",
    "imageUrl": "https://placehold.co/600x400.png",
    "dataAiHint": "church hospital"
  },
  {
    "id": "rs-167",
    "name": "PAN OJ EYE CLINIC",
    "address": "68 MISSION ROAD BONNY ISLAND",
    "coordinates": { "lat": 4.454, "lng": 7.164 },
    "type": "Optical Center",
    "services": ["Eye Examination", "Glasses", "Contact Lenses"],
    "phone": "08066769705",
    "openingHours": "Mon-Sat 9am-6pm",
    "imageUrl": "https://placehold.co/600x400.png",
    "dataAiHint": "eye clinic"
  },
  {
    "id": "rs-168",
    "name": "ULTIMATE SPECIALIST DENTAL CLINIC",
    "address": "NO 67, ROYAL AVENUE, OFF PETER ODILI, ABULOMA-OKURU LINK ROAD, PORT HARCOURT",
    "coordinates": { "lat": 4.783, "lng": 7.043 },
    "type": "Dental Clinic",
    "services": ["Dental Checkup", "Teeth Cleaning", "Specialist Dentistry"],
    "phone": "09041458864",
    "openingHours": "Mon-Fri 9am-5pm",
    "imageUrl": "https://placehold.co/600x400.png",
    "dataAiHint": "specialist dental"
  },
  {
    "id": "rs-169",
    "name": "Beulah Clinic and Diagnostic Centre",
    "address": "Ula-Upata road, Ahoada",
    "coordinates": { "lat": 5.09, "lng": 6.66 },
    "type": "Hospital",
    "services": ["Diagnostics", "General Consultation", "Emergency Care"],
    "phone": "08035005783",
    "openingHours": "24/7",
    "imageUrl": "https://placehold.co/600x400.png",
    "dataAiHint": "diagnostic center"
  },
  {
    "id": "rs-170",
    "name": "LUXTERRA EYE CLINIC",
    "address": "Suite 22, Hilltop Plaza, off Elitor Junction, Trans-Woji road, Port Harcourt.",
    "coordinates": { "lat": 4.815, "lng": 7.075 },
    "type": "Optical Center",
    "services": ["Eye Examination", "Glasses", "Contact Lenses"],
    "phone": "08163899902",
    "openingHours": "Mon-Sat 9am-6pm",
    "imageUrl": "https://placehold.co/600x400.png",
    "dataAiHint": "eye clinic"
  },
  {
    "id": "rs-171",
    "name": "STAR FITNESS GYM",
    "address": "STAR FITNESS STUDIO 17, RUMUIBEKWE ROAD P.H. RIVERS STATE",
    "coordinates": { "lat": 4.835, "lng": 7.035 },
    "type": "Gym",
    "services": ["Weight Training", "Cardio Equipment", "Personal Training", "Aerobics"],
    "phone": "9030001928",
    "openingHours": "Mon-Sat 6am-9pm",
    "imageUrl": "https://placehold.co/600x400.png",
    "dataAiHint": "fitness gym"
  },
  {
    "id": "rs-172",
    "name": "AUSPRON EYE CLINIC",
    "address": "Diamond Plaza Opposite Elimgbu Primary School Obio-Akpor Rivers State",
    "coordinates": { "lat": 4.876, "lng": 7.026 },
    "type": "Optical Center",
    "services": ["Eye Examination", "Glasses", "Contact Lenses"],
    "phone": "08035441000",
    "openingHours": "Mon-Sat 9am-6pm",
    "imageUrl": "https://placehold.co/600x400.png",
    "dataAiHint": "eye clinic"
  },
  {
    "id": "rs-173",
    "name": "MIMA DENTAL CLINIC",
    "address": "2/4 Raymond Morgan Street, Rainbow Town, opp Eterna fuel station, Peter Odili Road, Trans-Amadi/PH",
    "coordinates": { "lat": 4.79, "lng": 7.03 },
    "type": "Dental Clinic",
    "services": ["Dental Checkup", "Teeth Cleaning", "Fillings"],
    "phone": "08037089106",
    "openingHours": "Mon-Fri 9am-5pm",
    "imageUrl": "https://placehold.co/600x400.png",
    "dataAiHint": "dental clinic"
  },
  {
    "id": "rs-174",
    "name": "Standardcare Health Solution",
    "address": "32 Khana street D/line Port Harcourt.",
    "coordinates": { "lat": 4.798, "lng": 7.018 },
    "type": "Hospital",
    "services": ["Emergency Care", "General Consultation", "Health Checkups"],
    "phone": "08036690820",
    "openingHours": "24/7",
    "imageUrl": "https://placehold.co/600x400.png",
    "dataAiHint": "health clinic"
  },
  {
    "id": "rs-175",
    "name": "Kasomene Faith City Hospital",
    "address": "5 Shell Location road off Iwofe , Portharcourt",
    "coordinates": { "lat": 4.831, "lng": 6.971 },
    "type": "Hospital",
    "services": ["Emergency Care", "General Consultation", "Maternity"],
    "phone": "08037235980",
    "openingHours": "24/7",
    "imageUrl": "https://placehold.co/600x400.png",
    "dataAiHint": "city hospital"
  },
  {
    "id": "rs-176",
    "name": "Bariel Medical Center",
    "address": "Km 5, EAST-WEST EXPRESSWAY, ALETO, ELEME - PH RIVERS STATE",
    "coordinates": { "lat": 4.78, "lng": 7.1 },
    "type": "Hospital",
    "services": ["Emergency Care", "General Consultation", "Diagnostics"],
    "phone": "09087484877",
    "openingHours": "24/7",
    "imageUrl": "https://placehold.co/600x400.png",
    "dataAiHint": "medical center"
  },
  {
    "id": "rs-177",
    "name": "FAMO CLINIC",
    "address": "11 Egbe Street Alesa Eleme, Rivers state",
    "coordinates": { "lat": 4.781, "lng": 7.101 },
    "type": "Hospital",
    "services": ["Emergency Care", "General Consultation", "Maternity"],
    "phone": "08033136898",
    "openingHours": "24/7",
    "imageUrl": "https://placehold.co/600x400.png",
    "dataAiHint": "clinic building"
  },
  {
    "id": "rs-178",
    "name": "Lotag Eye Clinic",
    "address": "274 Event Center, 111 Airport road Portharcourt",
    "coordinates": { "lat": 4.871, "lng": 7.001 },
    "type": "Optical Center",
    "services": ["Eye Examination", "Glasses", "Contact Lenses"],
    "phone": "09034769911",
    "openingHours": "Mon-Sat 9am-6pm",
    "imageUrl": "https://placehold.co/600x400.png",
    "dataAiHint": "eye clinic"
  },
  {
    "id": "rs-179",
    "name": "Heritage Medicare Hospital",
    "address": "Plot 3 Heritage Avenue , Ndubuisi Estate by Afam road Oyigbo, Rivers state",
    "coordinates": { "lat": 4.88, "lng": 7.13 },
    "type": "Hospital",
    "services": ["Emergency Care", "General Consultation", "Maternity", "Surgery"],
    "phone": "08061687299",
    "openingHours": "24/7",
    "imageUrl": "https://placehold.co/600x400.png",
    "dataAiHint": "medicare hospital"
  },
  {
    "id": "rs-180",
    "name": "Anchor Hospital",
    "address": "Km 15 Eleme junction, Port harcourt",
    "coordinates": { "lat": 4.83, "lng": 7.09 },
    "type": "Hospital",
    "services": ["Emergency Care", "General Consultation", "Surgery"],
    "phone": "8038698731",
    "openingHours": "24/7",
    "imageUrl": "https://placehold.co/600x400.png",
    "dataAiHint": "hospital building"
  },
  {
    "id": "rs-181",
    "name": "Denovo Hospital",
    "address": "No 3 Denovo Close by Mofigo Filling Station Off Eneka Rukpokwu Road,Port Harcourt Rivers State",
    "coordinates": { "lat": 4.891, "lng": 6.991 },
    "type": "Hospital",
    "services": ["Emergency Care", "General Consultation", "Surgery"],
    "phone": "09131884828",
    "openingHours": "24/7",
    "imageUrl": "https://placehold.co/600x400.png",
    "dataAiHint": "hospital building"
  },
  {
    "id": "rs-182",
    "name": "STAR FITNESS SPA",
    "address": "STAR FITNESS STUDIO 17, RUMUIBEKWE ROAD P.H. RIVERS STATE",
    "coordinates": { "lat": 4.835, "lng": 7.035 },
    "type": "Spa",
    "services": ["Massage", "Sauna", "Steam Room", "Beauty Treatments"],
    "phone": "9030001928",
    "openingHours": "Mon-Sun 10am-9pm",
    "imageUrl": "https://placehold.co/600x400.png",
    "dataAiHint": "fitness spa"
  },
  {
    "id": "rs-183",
    "name": "Go Wellness Fitness center ( Portharcourt)",
    "address": "23/25 Nembe Road, Rumuibekwe housing estate, PortHarcourt.",
    "coordinates": { "lat": 4.836, "lng": 7.036 },
    "type": "Gym",
    "services": ["Weight Training", "Cardio Equipment", "Personal Training", "Wellness Programs"],
    "phone": "07088368274",
    "openingHours": "Mon-Sat 6am-9pm",
    "imageUrl": "https://placehold.co/600x400.png",
    "dataAiHint": "wellness gym"
  },
  {
    "id": "rs-184",
    "name": "Go Wellness Spa ( Portharcourt)",
    "address": "23/25 Nembe Road, Rumuibekwe housing estate, PortHarcourt.",
    "coordinates": { "lat": 4.836, "lng": 7.036 },
    "type": "Spa",
    "services": ["Massage", "Facials", "Body Treatments", "Sauna"],
    "phone": "07088368274",
    "openingHours": "Mon-Sun 10am-8pm",
    "imageUrl": "https://placehold.co/600x400.png",
    "dataAiHint": "luxury spa"
  },
  {
    "id": "rs-185",
    "name": "Pristine Eye Care Limited",
    "address": "Plot 12 Timothy Lane Rumuola Portharcourt",
    "coordinates": { "lat": 4.825, "lng": 7.025 },
    "type": "Optical Center",
    "services": ["Eye Examination", "Glasses", "Contact Lenses", "Designer Frames"],
    "phone": "8089442646",
    "openingHours": "Mon-Sat 9am-6pm",
    "imageUrl": "https://placehold.co/600x400.png",
    "dataAiHint": "eyecare center"
  },
  {
    "id": "rs-186",
    "name": "Clarisage Medical Consults",
    "address": "21 Hospital Road, Ahoada Town, Ahoada East L.G.A, Rivers State",
    "coordinates": { "lat": 5.081, "lng": 6.651 },
    "type": "Hospital",
    "services": ["Specialist Consultation", "General Medicine", "Health Checkups"],
    "phone": "08064863206",
    "openingHours": "By Appointment",
    "imageUrl": "https://placehold.co/600x400.png",
    "dataAiHint": "medical consultant"
  },
  {
    "id": "rs-187",
    "name": "Main Vision Eye Clinic",
    "address": "Ejims Plaza ,13 Trans amadi layout Rumuobiakani, Portharcourt",
    "coordinates": { "lat": 4.816, "lng": 7.036 },
    "type": "Optical Center",
    "services": ["Eye Examination", "Glasses", "Vision Therapy"],
    "phone": "07063694853",
    "openingHours": "Mon-Sat 9am-6pm",
    "imageUrl": "https://placehold.co/600x400.png",
    "dataAiHint": "vision clinic"
  },
  {
    "id": "rs-188",
    "name": "Amazon Eye Clinic",
    "address": "3 Covenant Estate, behind shell Residential area Rumuokwurusi , portharcourt",
    "coordinates": { "lat": 4.832, "lng": 7.052 },
    "type": "Optical Center",
    "services": ["Eye Examination", "Glasses", "Contact Lenses"],
    "phone": "09025517303",
    "openingHours": "Mon-Sat 9am-6pm",
    "imageUrl": "https://placehold.co/600x400.png",
    "dataAiHint": "eye clinic"
  },
  {
    "id": "rs-189",
    "name": "April Hospital",
    "address": "300B Uniport Road Ozuoba Portharcourt",
    "coordinates": { "lat": 4.861, "lng": 6.961 },
    "type": "Hospital",
    "services": ["Emergency Care", "General Consultation", "Maternity"],
    "phone": "08038848178",
    "openingHours": "24/7",
    "imageUrl": "https://placehold.co/600x400.png",
    "dataAiHint": "hospital building"
  },
  {
    "id": "rs-190",
    "name": "Smile Evolution Dental clinic",
    "address": "No 4 Amadi-ama Industrial layout Transamadi Portharcourt",
    "coordinates": { "lat": 4.782, "lng": 7.032 },
    "type": "Dental Clinic",
    "services": ["Dental Checkup", "Teeth Cleaning", "Cosmetic Dentistry"],
    "phone": "08103558548",
    "openingHours": "Mon-Sat 9am-5pm",
    "imageUrl": "https://placehold.co/600x400.png",
    "dataAiHint": "dental clinic"
  },
  {
    "id": "rs-191",
    "name": "Ponyx Hospital",
    "address": "plot 26 Presidential Estate road GRA 3 Portharcourt",
    "coordinates": { "lat": 4.828, "lng": 7.028 },
    "type": "Hospital",
    "services": ["Emergency Care", "General Consultation", "Surgery", "Pharmacy"],
    "phone": "08120958409",
    "openingHours": "24/7",
    "imageUrl": "https://placehold.co/600x400.png",
    "dataAiHint": "hospital building"
  },
  {
    "id": "rs-192",
    "name": "Health Fountains Hospital",
    "address": "77 NTA road opp Akpor Grammer School Ozuoba, Portharcourt",
    "coordinates": { "lat": 4.852, "lng": 7.013 },
    "type": "Hospital",
    "services": ["Emergency Care", "General Consultation", "Health Checkups", "Wellness"],
    "phone": "08118911805",
    "openingHours": "24/7",
    "imageUrl": "https://placehold.co/600x400.png",
    "dataAiHint": "wellness hospital"
  },
  {
    "id": "rs-193",
    "name": "LINSOLAR EYE CLINIC",
    "address": "14 NTA/OZUOBA ROAD ADJACENT TO TIMELESS SUPER STORES",
    "coordinates": { "lat": 4.853, "lng": 7.014 },
    "type": "Optical Center",
    "services": ["Eye Examination", "Glasses", "Contact Lenses"],
    "phone": "08037085800",
    "openingHours": "Mon-Sat 9am-6pm",
    "imageUrl": "https://placehold.co/600x400.png",
    "dataAiHint": "eye clinic"
  },
  {
    "id": "rs-194",
    "name": "Soft touch physiotherapy",
    "address": "10 Ogwutum Avenue off NTA/Mgbuoba road Portharcourt",
    "coordinates": { "lat": 4.854, "lng": 7.015 },
    "type": "Physiotherapy Clinic",
    "services": ["Physical Therapy", "Rehabilitation", "Sports Injury", "Post-operative care"],
    "phone": "07030619285",
    "openingHours": "Mon-Fri 9am-5pm",
    "imageUrl": "https://placehold.co/600x400.png",
    "dataAiHint": "physiotherapy clinic"
  },
  {
    "id": "rs-195",
    "name": "Novelty Eye Clinic - Cumi Centre",
    "address": "No 2 lift up close off EZE Gbaka gbaka Woji",
    "coordinates": { "lat": 4.817, "lng": 7.077 },
    "type": "Optical Center",
    "services": ["Eye Examination", "Glasses", "Contact Lenses"],
    "phone": "08060850758",
    "openingHours": "Mon-Sat 9am-6pm",
    "imageUrl": "https://placehold.co/600x400.png",
    "dataAiHint": "eye clinic"
  },
  {
    "id": "rs-196",
    "name": "Novelty Eye Clinic - Dominion Plaza",
    "address": "No. 138 Eze Dr. Frank A. Eke Road. C/O CDC Woji road, Portharcourt",
    "coordinates": { "lat": 4.818, "lng": 7.078 },
    "type": "Optical Center",
    "services": ["Eye Examination", "Glasses", "Contact Lenses"],
    "phone": "08060850758",
    "openingHours": "Mon-Sat 9am-6pm",
    "imageUrl": "https://placehold.co/600x400.png",
    "dataAiHint": "eye clinic"
  },
  {
    "id": "rs-197",
    "name": "Pleasant Vision Eye Care",
    "address": "Suite 1 Sentels plaza opp Deeper Life church HQT Rumuodara, Portharcourt",
    "coordinates": { "lat": 4.862, "lng": 7.012 },
    "type": "Optical Center",
    "services": ["Eye Examination", "Glasses", "Contact Lenses"],
    "phone": "08038861777",
    "openingHours": "Mon-Sat 9am-6pm",
    "imageUrl": "https://placehold.co/600x400.png",
    "dataAiHint": "eye care"
  },
  {
    "id": "rs-198",
    "name": "Nissi Medical Centre",
    "address": "5 Nissi lane off Ada George by open doors christian centre, Rumuchida, Obio/Akpor",
    "coordinates": { "lat": 4.847, "lng": 6.989 },
    "type": "Hospital",
    "services": ["Emergency Care", "General Consultation", "Health Checkups", "Pharmacy"],
    "phone": "8098108899",
    "openingHours": "24/7",
    "imageUrl": "https://placehold.co/600x400.png",
    "dataAiHint": "medical center"
  },
  {
    "id": "rs-199",
    "name": "Eagle Eye Clinic",
    "address": "80 Airport Road Rumuodumaya, Portharcourt",
    "coordinates": { "lat": 4.872, "lng": 7.002 },
    "type": "Optical Center",
    "services": ["Eye Examination", "Glasses", "Contact Lenses"],
    "phone": "08064139276",
    "openingHours": "Mon-Sat 9am-6pm",
    "imageUrl": "https://placehold.co/600x400.png",
    "dataAiHint": "eye clinic"
  },
  {
    "id": "rs-200",
    "name": "De-mysticare hospital",
    "address": "5 ROAD 7 RUMUNDURU NEW LAYOUT (OFF FARM ROAD), RUMUNDURU PORT HARCOURT",
    "coordinates": { "lat": 4.873, "lng": 6.973 },
    "type": "Hospital",
    "services": ["Emergency Care", "General Consultation", "Maternity"],
    "phone": "08183940162",
    "openingHours": "24/7",
    "imageUrl": "https://placehold.co/600x400.png",
    "dataAiHint": "hospital building"
  },
  {
    "id": "rs-201",
    "name": "Gilead Dental Specialist",
    "address": "Plot 92, Tom Inko Tariah Avenue, Rumuogba Estate, Portharcourt",
    "coordinates": { "lat": 4.837, "lng": 7.037 },
    "type": "Dental Clinic",
    "services": ["Specialist Dentistry", "Dental Checkup", "Teeth Cleaning"],
    "phone": "8130551090",
    "openingHours": "Mon-Sat 9am-6pm",
    "imageUrl": "https://placehold.co/600x400.png",
    "dataAiHint": "dental specialist"
  },
  {
    "id": "rs-202",
    "name": "Wellspring Vision Center",
    "address": "4 Elekahia - Rumukalagbor Link road Portharcourt",
    "coordinates": { "lat": 4.807, "lng": 7.027 },
    "type": "Optical Center",
    "services": ["Eye Examination", "Glasses", "Contact Lenses"],
    "phone": "08038456994",
    "openingHours": "Mon-Sat 9am-6pm",
    "imageUrl": "https://placehold.co/600x400.png",
    "dataAiHint": "vision center"
  },
  {
    "id": "rs-203",
    "name": "URIEL I CARE HOSPITAL",
    "address": "6 AKPAN EDET CLOSE, PANAMA ESTATE, OFF PETER ODILI ROAD, PH",
    "coordinates": { "lat": 4.808, "lng": 7.058 },
    "type": "Hospital",
    "services": ["Emergency Care", "General Consultation", "Eye Care", "Surgery"],
    "phone": "08027033216",
    "openingHours": "24/7",
    "imageUrl": "https://placehold.co/600x400.png",
    "dataAiHint": "eye care hospital"
  },
  {
    "id": "rs-204",
    "name": "The Riverside Clinic Port Harcourt",
    "address": "21 Habour road Port Harcourt",
    "coordinates": { "lat": 4.757, "lng": 7.007 },
    "type": "Clinic",
    "services": ["General Consultation", "Health Checkups", "Minor Procedures"],
    "phone": "08033063834",
    "openingHours": "24/7",
    "imageUrl": "https://placehold.co/600x400.png",
    "dataAiHint": "riverside clinic"
  },
  {
    "id": "rs-205",
    "name": "Queen of Peace Hospital",
    "address": "2 Nihi Street Sunlight Estate Off Incarnate Road Oyigbo.",
    "coordinates": { "lat": 4.882, "lng": 7.132 },
    "type": "Hospital",
    "services": ["Emergency Care", "General Consultation", "Maternity", "Community Health"],
    "phone": "08179124328",
    "openingHours": "24/7",
    "imageUrl": "https://placehold.co/600x400.png",
    "dataAiHint": "peace hospital"
  },
  {
    "id": "rs-206",
    "name": "Nectar Medical and Fertility Clinic",
    "address": "House 45 Road 2 ,Mandela Estate, off SARS Road,Rumuagholu, Obio-Akpor LGA",
    "coordinates": { "lat": 4.883, "lng": 6.993 },
    "type": "Hospital",
    "services": ["Fertility", "Specialist Consultation", "Gynecology", "Maternity"],
    "phone": "09091102960",
    "openingHours": "Mon-Fri 9am-5pm",
    "imageUrl": "https://placehold.co/600x400.png",
    "dataAiHint": "fertility clinic"
  },
  {
    "id": "rs-207",
    "name": "Eli Johnson Specialist Hospital",
    "address": "3, Ahoada Street, Eli Johnson Close, Rumuibekwe Housing Estate, Rivers, Port Harcourt",
    "coordinates": { "lat": 4.833, "lng": 7.033 },
    "type": "Hospital",
    "services": ["Emergency Care", "Specialist Consultation", "Surgery", "Diagnostics"],
    "phone": "07016258566",
    "openingHours": "24/7",
    "imageUrl": "https://placehold.co/600x400.png",
    "dataAiHint": "specialist hospital"
  },
  {
    "id": "rs-208",
    "name": "ALTHAHAUS MEDICALS LTD",
    "address": "NO 122C GENERAL DIRIYAI, STREET GRA PHASE II",
    "coordinates": { "lat": 4.829, "lng": 7.029 },
    "type": "Hospital",
    "services": ["General Consultation", "Diagnostics", "Health Checkups", "Pharmacy"],
    "phone": "08085835207",
    "openingHours": "24/7",
    "imageUrl": "https://placehold.co/600x400.png",
    "dataAiHint": "medical building"
  },
  {
    "id": "rs-209",
    "name": "View Finder Eye Clinic",
    "address": "Amazing grace plaza, 103 Woji road, Woji",
    "coordinates": { "lat": 4.819, "lng": 7.079 },
    "type": "Optical Center",
    "services": ["Eye Examination", "Glasses", "Contact Lenses"],
    "phone": "07067103787",
    "openingHours": "Mon-Sat 9am-6pm",
    "imageUrl": "https://placehold.co/600x400.png",
    "dataAiHint": "eye clinic"
  },
  {
    "id": "rs-210",
    "name": "Military Hospital Portharcourt",
    "address": "Military hospital, Aba Road Port Harcourt",
    "coordinates": { "lat": 4.818, "lng": 7.018 },
    "type": "Hospital",
    "services": ["Emergency Care", "General Consultation", "Military Health", "Surgery"],
    "phone": "08051204337",
    "openingHours": "24/7",
    "imageUrl": "https://placehold.co/600x400.png",
    "dataAiHint": "military hospital"
  },
  {
    "id": "rs-211",
    "name": "Spring Rose hospital",
    "address": "Rumuagholu road, off Rumuokoro junction, Port Harcourt.",
    "coordinates": { "lat": 4.874, "lng": 6.994 },
    "type": "Hospital",
    "services": ["Emergency Care", "General Consultation", "Maternity", "Pediatrics"],
    "phone": "08033407031",
    "openingHours": "24/7",
    "imageUrl": "https://placehold.co/600x400.png",
    "dataAiHint": "hospital building"
  },
  {
    "id": "rs-212",
    "name": "Sonocare Clinics",
    "address": "2/3 Road 1 (behind Living Faith church), Eliminigwe Housing Estate Phase 3, Elelenwo, Port Harcourt",
    "coordinates": { "lat": 4.83, "lng": 7.091 },
    "type": "Hospital",
    "services": ["General Consultation", "Diagnostics", "Ultrasound", "Health Checkups"],
    "phone": "07034199466",
    "openingHours": "24/7",
    "imageUrl": "https://placehold.co/600x400.png",
    "dataAiHint": "clinic sonography"
  },
  {
    "id": "rs-213",
    "name": "PAEDIATRIC & MATERNAL CARE HOSPITAL",
    "address": "NO 2, IDIAGBON CLOSE, OFF IDIAGBON RD, GRA 3, PORT HARCOURT",
    "coordinates": { "lat": 4.827, "lng": 7.027 },
    "type": "Hospital",
    "services": ["Pediatrics", "Maternity", "Neonatal Care", "Emergency Care"],
    "phone": "08106162746",
    "openingHours": "24/7",
    "imageUrl": "https://placehold.co/600x400.png",
    "dataAiHint": "maternity hospital"
  },
  {
    "id": "rs-214",
    "name": "SURE EYES CLINIC",
    "address": "168 Pipeline Rumuagholu, beside Orange Hotel",
    "coordinates": { "lat": 4.875, "lng": 6.995 },
    "type": "Optical Center",
    "services": ["Eye Examination", "Glasses", "Contact Lenses"],
    "phone": "09160191333",
    "openingHours": "Mon-Sat 9am-6pm",
    "imageUrl": "https://placehold.co/600x400.png",
    "dataAiHint": "eye clinic"
  },
  {
    "id": "rs-215",
    "name": "First Care Medical Services",
    "address": "Y- JUNCTION BY M|N|-ORLU ROAD, MGBOAKARA, OFF ELIOPARANWO, OFF ADA GEORGE ROAD, PHC.",
    "coordinates": { "lat": 4.848, "lng": 6.988 },
    "type": "Hospital",
    "services": ["Emergency Care", "General Consultation", "Diagnostics", "Pharmacy"],
    "phone": "09039999947",
    "openingHours": "24/7",
    "imageUrl": "https://placehold.co/600x400.png",
    "dataAiHint": "medical service"
  },
  {
    "id": "rs-216",
    "name": "First Care Medical Services-Old GRA",
    "address": "NO. 2 ASARAMA STREET, OLD G.R.A., PORT HARCOURT",
    "coordinates": { "lat": 4.789, "lng": 7.019 },
    "type": "Hospital",
    "services": ["Emergency Care", "General Consultation", "Diagnostics", "Pharmacy"],
    "phone": "09039999947",
    "openingHours": "24/7",
    "imageUrl": "https://placehold.co/600x400.png",
    "dataAiHint": "medical service"
  },
  {
    "id": "rs-217",
    "name": "University of Port-Harcourt Teaching Hospital",
    "address": "East West Road , Choba.",
    "coordinates": { "lat": 4.865, "lng": 6.915 },
    "type": "Specialist Center",
    "services": ["Emergency Care", "Specialist Consultation", "Surgery", "Maternity", "Diagnostics", "Pharmacy"],
    "phone": "08102398932",
    "openingHours": "24/7",
    "imageUrl": "https://placehold.co/600x400.png",
    "dataAiHint": "university hospital"
  },
  {
    "id": "rs-218",
    "name": "BOVAN SPA",
    "address": "No 29 Rumunduru Eliowhani Road, Pure water Junction Port Harcourt, Rivers State",
    "coordinates": { "lat": 4.876, "lng": 6.976 },
    "type": "Spa",
    "services": ["Massage", "Facials", "Body Treatments", "Sauna"],
    "phone": "07032387331",
    "openingHours": "Mon-Sun 10am-8pm",
    "imageUrl": "https://placehold.co/600x400.png",
    "dataAiHint": "luxury spa"
  },
  {
    "id": "rs-219",
    "name": "BOVAN GYM",
    "address": "No 29 Rumunduru Eliowhani Road, Pure water Junction Port Harcourt, Rivers State",
    "coordinates": { "lat": 4.876, "lng": 6.976 },
    "type": "Gym",
    "services": ["Weight Training", "Cardio Equipment", "Personal Training", "Aerobics"],
    "phone": "07032387331",
    "openingHours": "Mon-Sat 6am-9pm",
    "imageUrl": "https://placehold.co/600x400.png",
    "dataAiHint": "fitness gym"
  },
  {
    "id": "rs-220",
    "name": "PATFARE HOSPITAL",
    "address": "Km 18, Airport Road, Rukpokwu",
    "coordinates": { "lat": 4.885, "lng": 7.005 },
    "type": "Hospital",
    "services": ["Emergency Care", "General Consultation", "Maternity", "Surgery"],
    "phone": "08067527921",
    "openingHours": "24/7",
    "imageUrl": "https://placehold.co/600x400.png",
    "dataAiHint": "hospital building"
  },
  {
    "id": "rs-221",
    "name": "Jodan Specialist Hospital",
    "address": "No 1 Hospital Avenue , RD 12 Rumuahorlu new layout, Rumuahorlu Portharcourt",
    "coordinates": { "lat": 4.877, "lng": 6.977 },
    "type": "Hospital",
    "services": ["Specialist Care", "Surgery", "Emergency Care", "General Consultation"],
    "phone": "08148058898",
    "openingHours": "24/7",
    "imageUrl": "https://placehold.co/600x400.png",
    "dataAiHint": "specialist hospital"
  },
  {
    "id": "rs-222",
    "name": "Physioforte Physiotherapy clinic",
    "address": "Anchor Hospital off Kilo 15 Aba/ Portharcourt expressway Eleme Junction",
    "coordinates": { "lat": 4.831, "lng": 7.091 },
    "type": "Physiotherapy Clinic",
    "services": ["Physical Therapy", "Rehabilitation", "Sports Injury"],
    "phone": "08063979967",
    "openingHours": "Mon-Fri 9am-5pm",
    "imageUrl": "https://placehold.co/600x400.png",
    "dataAiHint": "physiotherapy clinic"
  },
  {
    "id": "rs-223",
    "name": "OLIVE DENTAL CLINIC",
    "address": "187 NTA road, Mgbuoba opp Laritel",
    "coordinates": { "lat": 4.858, "lng": 7.016 },
    "type": "Dental Clinic",
    "services": ["Dental Checkup", "Teeth Cleaning", "Fillings", "Extractions"],
    "phone": "07089819127",
    "openingHours": "Mon-Sat 9am-5pm",
    "imageUrl": "https://placehold.co/600x400.png",
    "dataAiHint": "dental clinic"
  },
  {
    "id": "rs-224",
    "name": "Nnihi Medical Centre",
    "address": "No 3 Ibe street Royal Estate Road One. Rumuaghorlu",
    "coordinates": { "lat": 4.878, "lng": 6.978 },
    "type": "Hospital",
    "services": ["Emergency Care", "General Consultation", "Diagnostics"],
    "phone": "08137077884",
    "openingHours": "24/7",
    "imageUrl": "https://placehold.co/600x400.png",
    "dataAiHint": "medical center"
  },
  {
    "id": "rs-225",
    "name": "Olunwa Medical Centre",
    "address": "NO 4 AMADI AMA LAYOUT RAINBOW TOWN PORT HARCOURT",
    "coordinates": { "lat": 4.784, "lng": 7.034 },
    "type": "Hospital",
    "services": ["Emergency Care", "General Consultation", "Maternity", "Pharmacy"],
    "phone": "09086168578",
    "openingHours": "24/7",
    "imageUrl": "https://placehold.co/600x400.png",
    "dataAiHint": "medical center"
  },
  {
    "id": "rs-226",
    "name": "St Anne's Memorial Hospital",
    "address": "NO 11 APOSTOLIC ROAD, BEHIND POLICE QUARTERS, MBANO CAMP, OYIGBO, RIVERS STATE.",
    "coordinates": { "lat": 4.883, "lng": 7.133 },
    "type": "Hospital",
    "services": ["Emergency Care", "Maternity", "General Consultation", "Community Health"],
    "phone": "08136790995",
    "openingHours": "24/7",
    "imageUrl": "https://placehold.co/600x400.png",
    "dataAiHint": "memorial hospital"
  },
  {
    "id": "rs-227",
    "name": "Radiance Hospital",
    "address": "11 Birabi Street Opposite St. Jude's military Church, GRA Phase 2",
    "coordinates": { "lat": 4.83, "lng": 7.03 },
    "type": "Hospital",
    "services": ["Emergency Care", "General Consultation", "Surgery", "Diagnostics"],
    "phone": "09034156360",
    "openingHours": "24/7",
    "imageUrl": "https://placehold.co/600x400.png",
    "dataAiHint": "hospital building"
  },
  {
    "id": "rs-228",
    "name": "Zinno Optometry Eye Care Centre",
    "address": "30 Okporo Road, Off Artillery Favour Award Shopping Mall, Suite 26, Port Harcourt",
    "coordinates": { "lat": 4.833, "lng": 7.049 },
    "type": "Optical Center",
    "services": ["Eye Examination", "Glasses", "Contact Lenses", "Designer Frames"],
    "phone": "08053565864",
    "openingHours": "Mon-Sat 9am-6pm",
    "imageUrl": "https://placehold.co/600x400.png",
    "dataAiHint": "eyecare center"
  },
  {
    "id": "rs-229",
    "name": "MORNING STAR HOSPITAL- BONNY",
    "address": "No 75 King Perekule Street, Bonny Island Rivers state",
    "coordinates": { "lat": 4.455, "lng": 7.165 },
    "type": "Hospital",
    "services": ["Emergency Care", "General Consultation", "Community Health"],
    "phone": "09160333867",
    "openingHours": "24/7",
    "imageUrl": "https://placehold.co/600x400.png",
    "dataAiHint": "island hospital"
  },
  {
    "id": "rs-230",
    "name": "El Bene hospital",
    "address": "5 EL Bene Close, off 121 Ada George Road by OPENDOORS Church, Mile 4, Port Harcourt.",
    "coordinates": { "lat": 4.849, "lng": 6.99 },
    "type": "Hospital",
    "services": ["Emergency Care", "General Consultation", "Surgery", "Maternity"],
    "phone": "08033167396",
    "openingHours": "24/7",
    "imageUrl": "https://placehold.co/600x400.png",
    "dataAiHint": "hospital building"
  },
  {
    "id": "rs-231",
    "name": "Veckron Hospital",
    "address": "21 Orlu Street, Majesty Estate Opposite Dominion City Church Off NTA Road, Ozuoba Port Harcourt",
    "coordinates": { "lat": 4.859, "lng": 7.017 },
    "type": "Hospital",
    "services": ["Emergency Care", "General Consultation", "Pharmacy", "Diagnostics"],
    "phone": "08058207689",
    "openingHours": "24/7",
    "imageUrl": "https://placehold.co/600x400.png",
    "dataAiHint": "hospital building"
  },
  {
    "id": "rs-232",
    "name": "PEE FITNESS",
    "address": "#1B Golden Valley Drive By YKC Junction, Port-harcourt",
    "coordinates": { "lat": 4.82, "lng": 7.07 },
    "type": "Gym",
    "services": ["Weight Training", "Cardio Equipment", "Personal Training", "Aerobics"],
    "phone": "08143204821",
    "openingHours": "Mon-Sat 6am-9pm",
    "imageUrl": "https://placehold.co/600x400.png",
    "dataAiHint": "fitness gym"
  },
  {
    "id": "rs-233",
    "name": "Auxano Eye Clinic",
    "address": "21 old Aba Road Beside Total filling station Rumuomasi PHC",
    "coordinates": { "lat": 4.823, "lng": 7.043 },
    "type": "Optical Center",
    "services": ["Eye Examination", "Glasses", "Contact Lenses"],
    "phone": "08033654197",
    "openingHours": "Mon-Sat 9am-6pm",
    "imageUrl": "https://placehold.co/600x400.png",
    "dataAiHint": "eye clinic"
  },
  {
    "id": "rs-234",
    "name": "Blossom Dental Clinic",
    "address": "94 Aba Road Port-Harcourt.",
    "coordinates": { "lat": 4.817, "lng": 7.027 },
    "type": "Dental Clinic",
    "services": ["Dental Checkup", "Teeth Cleaning", "Fillings"],
    "phone": "08148063086",
    "openingHours": "Mon-Fri 9am-5pm",
    "imageUrl": "https://placehold.co/600x400.png",
    "dataAiHint": "dental clinic"
  },
  {
    "id": "rs-235",
    "name": "Erlings Childrens Hospital",
    "address": "35 NTA/ APARA LINK ROAD , OFF EAST/ WEST ROAD, RUMUIGBO NEW LAYOUT PORT HARCOURT.",
    "coordinates": { "lat": 4.86, "lng": 7.018 },
    "type": "Hospital",
    "services": ["Pediatrics", "Neonatal Care", "Emergency Care", "Vaccinations"],
    "phone": "09093729048",
    "openingHours": "24/7",
    "imageUrl": "https://placehold.co/600x400.png",
    "dataAiHint": "children hospital"
  },
  {
    "id": "rs-236",
    "name": "PEACE VALLEY HOSPITAL",
    "address": "7 kwemegbu street off Ntelue road Rugbochi ,Ogbogoro",
    "coordinates": { "lat": 4.87, "lng": 6.96 },
    "type": "Hospital",
    "services": ["Emergency Care", "General Consultation", "Maternity"],
    "phone": "08037252484",
    "openingHours": "24/7",
    "imageUrl": "https://placehold.co/600x400.png",
    "dataAiHint": "hospital building"
  },
  {
    "id": "rs-237",
    "name": "Pharez spring Diagnostic and wellness Hospital",
    "address": "1 MARGISTRATE COURT ROAD FOT/FLT ROAD ONNE BESIDE MODEL PRIMARY HEALTH CENTRE",
    "coordinates": { "lat": 4.717, "lng": 7.157 },
    "type": "Hospital",
    "services": ["Diagnostics", "Wellness", "Health Checkups", "Emergency Care"],
    "phone": "08066243021",
    "openingHours": "24/7",
    "imageUrl": "https://placehold.co/600x400.png",
    "dataAiHint": "diagnostic hospital"
  },
  {
    "id": "rs-238",
    "name": "Pegassus Eye Clinic",
    "address": "Plot 6 ,Second street, Elekahia Housing Estate, Portharcourt",
    "coordinates": { "lat": 4.806, "lng": 7.026 },
    "type": "Optical Center",
    "services": ["Eye Examination", "Glasses", "Contact Lenses"],
    "phone": "07038265617",
    "openingHours": "Mon-Sat 9am-6pm",
    "imageUrl": "https://placehold.co/600x400.png",
    "dataAiHint": "eye clinic"
  },
  {
    "id": "rs-239",
    "name": "Elena Cares Hospital",
    "address": "Chief James Jephthah by Virus crescent off Sars road Portharcourt",
    "coordinates": { "lat": 4.882, "lng": 6.992 },
    "type": "Hospital",
    "services": ["Emergency Care", "General Consultation", "Maternity", "Pharmacy"],
    "phone": "09053126116",
    "openingHours": "24/7",
    "imageUrl": "https://placehold.co/600x400.png",
    "dataAiHint": "hospital building"
  },
  {
    "id": "rs-240",
    "name": "Reliance Family Clinic - Port Harcourt",
    "address": "No. 3 Rumuola link Road, opposite women of faith Church, port Harcourt",
    "coordinates": { "lat": 4.825, "lng": 7.025 },
    "type": "Clinic",
    "services": ["Family Medicine", "General Consultation", "Health Checkups"],
    "phone": "09168342053",
    "openingHours": "Mon-Sat 8am-7pm",
    "imageUrl": "https://placehold.co/600x400.png",
    "dataAiHint": "family clinic"
  },
  {
    "id": "rs-241",
    "name": "Sky Fitness",
    "address": "No1 Chf Chun-gewe street, opp. NNPC estate East/West rd, Aleto-Eleme",
    "coordinates": { "lat": 4.781, "lng": 7.151 },
    "type": "Gym",
    "services": ["Weight Training", "Cardio", "Personal Training", "Aerobics"],
    "phone": "08068800296",
    "openingHours": "Mon-Sat 6am-9pm",
    "imageUrl": "https://placehold.co/600x400.png",
    "dataAiHint": "fitness gym"
  },
  {
    "id": "rs-242",
    "name": "Mamuzo Hospitals",
    "address": "15 Tony Chuku Street, Off Alcon Road(opposite alcon gate), off Peter Odili Road, Port Harcourt Rivers State",
    "coordinates": { "lat": 4.811, "lng": 7.071 },
    "type": "Hospital",
    "services": ["Emergency Care", "General Consultation", "Surgery", "Maternity"],
    "phone": "08139355826",
    "openingHours": "24/7",
    "imageUrl": "https://placehold.co/600x400.png",
    "dataAiHint": "hospital building"
  },
  {
    "id": "rs-243",
    "name": "Krisany Medical Services",
    "address": "5B Asinobi /agudama street Dline",
    "coordinates": { "lat": 4.801, "lng": 7.022 },
    "type": "Hospital",
    "services": ["Emergency Care", "General Consultation", "Diagnostics", "Pharmacy"],
    "phone": "09137174255",
    "openingHours": "24/7",
    "imageUrl": "https://placehold.co/600x400.png",
    "dataAiHint": "medical service"
  },
  {
    "id": "rs-244",
    "name": "Belanka Children Hospital",
    "address": "4 OASIS GARDEN ROAD, OFF GNESCOPE STREET, RUKPAKWULUSI, PORT HARCOURT",
    "coordinates": { "lat": 4.877, "lng": 6.967 },
    "type": "Hospital",
    "services": ["Pediatrics", "Neonatal Care", "Emergency Care", "Vaccinations"],
    "phone": "09036675893",
    "openingHours": "24/7",
    "imageUrl": "https://placehold.co/600x400.png",
    "dataAiHint": "children hospital"
  },
  {
    "id": "rs-245",
    "name": "Success Life Specialist Clinic",
    "address": "House 5, close D Avenue, Federal Housing Estate, Agip, Rumueme, Port Harcourt.",
    "coordinates": { "lat": 4.816, "lng": 6.996 },
    "type": "Hospital",
    "services": ["Specialist Consultation", "Emergency Care", "General Medicine"],
    "phone": "07013521512",
    "openingHours": "24/7",
    "imageUrl": "https://placehold.co/600x400.png",
    "dataAiHint": "specialist clinic"
  },
  {
    "id": "rs-246",
    "name": "Spectrum eye care",
    "address": "1 stadium road ( big treat building) opposite Airforce Base Portharcourt",
    "coordinates": { "lat": 4.821, "lng": 7.031 },
    "type": "Optical Center",
    "services": ["Eye Examination", "Glasses", "Contact Lenses", "Designer Frames"],
    "phone": "08062695052",
    "openingHours": "Mon-Sat 9am-7pm",
    "imageUrl": "https://placehold.co/600x400.png",
    "dataAiHint": "eyecare center"
  },
  {
    "id": "rs-247",
    "name": "Kal Classic Hotel Gym",
    "address": "No. 18/20 Alejor, Behind Nation Plaza. Onne. Rivers State",
    "coordinates": { "lat": 4.716, "lng": 7.156 },
    "type": "Gym",
    "services": ["Weight Training", "Cardio Equipment", "Personal Training"],
    "phone": "07061739088",
    "openingHours": "Mon-Sun 7am-9pm",
    "imageUrl": "https://placehold.co/600x400.png",
    "dataAiHint": "hotel gym"
  },
  {
    "id": "rs-248",
    "name": "Viandra Eye and General Consultant",
    "address": "No 25, Elioparanwo Road, off Wimpi, port Harcourt.",
    "coordinates": { "lat": 4.845, "lng": 6.985 },
    "type": "Optical Center",
    "services": ["Eye Examination", "General Health Consultation", "Glasses"],
    "phone": "08098289827",
    "openingHours": "Mon-Fri 9am-5pm",
    "imageUrl": "https://placehold.co/600x400.png",
    "dataAiHint": "eye clinic"
  },
  {
    "id": "rs-249",
    "name": "Starlyke Dental Clinic",
    "address": "443 ikwerre road opp FCMB Rumuokwuta",
    "coordinates": { "lat": 4.851, "lng": 7.001 },
    "type": "Dental Clinic",
    "services": ["Dental Checkup", "Teeth Cleaning", "Fillings", "Extractions"],
    "phone": "07030292955",
    "openingHours": "Mon-Sat 9am-6pm",
    "imageUrl": "https://placehold.co/600x400.png",
    "dataAiHint": "dental clinic"
  },
  {
    "id": "rs-250",
    "name": "Marina Hospital",
    "address": "Chief Odum Close , off number 1 ogbuga street Ogbumnabali, Portharcourt",
    "coordinates": { "lat": 4.814, "lng": 7.014 },
    "type": "Hospital",
    "services": ["Emergency Care", "General Consultation", "Maternity", "Surgery"],
    "phone": "08086669491",
    "openingHours": "24/7",
    "imageUrl": "https://placehold.co/600x400.png",
    "dataAiHint": "hospital building"
  },
  {
    "id": "rs-251",
    "name": "Prisshama Eye Clinic",
    "address": "No. 31 Old Refinery Road, Akpajo Eleme, Rivers State",
    "coordinates": { "lat": 4.828, "lng": 7.098 },
    "type": "Optical Center",
    "services": ["Eye Examination", "Glasses", "Contact Lenses"],
    "phone": "07062910670",
    "openingHours": "Mon-Sat 9am-6pm",
    "imageUrl": "https://placehold.co/600x400.png",
    "dataAiHint": "eye clinic"
  },
  {
    "id": "rs-252",
    "name": "Beulah Eye Clinic",
    "address": "3 Bons Avenue Rumuogba Port Harcourt",
    "coordinates": { "lat": 4.838, "lng": 7.042 },
    "type": "Optical Center",
    "services": ["Eye Examination", "Glasses", "Contact Lenses"],
    "phone": "07037498126",
    "openingHours": "Mon-Sat 9am-6pm",
    "imageUrl": "https://placehold.co/600x400.png",
    "dataAiHint": "eye clinic"
  },
  {
    "id": "rs-253",
    "name": "C. Bennett Specialist Hospital",
    "address": "100 Shell Location Rd, By Open Doors Church Rd, Port harcourt",
    "coordinates": { "lat": 4.832, "lng": 6.972 },
    "type": "Hospital",
    "services": ["Specialist Care", "Emergency Care", "Surgery", "Diagnostics"],
    "phone": "08058128251",
    "openingHours": "24/7",
    "imageUrl": "https://placehold.co/600x400.png",
    "dataAiHint": "specialist hospital"
  },
  {
    "id": "rs-254",
    "name": "Foundation Clinic",
    "address": "No 1 Foundation close off palace close Omoku",
    "coordinates": { "lat": 5.341, "lng": 6.651 },
    "type": "Hospital",
    "services": ["Emergency Care", "General Consultation", "Community Health"],
    "phone": "07063640069",
    "openingHours": "24/7",
    "imageUrl": "https://placehold.co/600x400.png",
    "dataAiHint": "rural clinic"
  },
  {
    "id": "rs-255",
    "name": "Princess Medical Center (Classic Wing)",
    "address": "3B Ndahbros street Nkpogu, Trans Amadi",
    "coordinates": { "lat": 4.801, "lng": 7.061 },
    "type": "Hospital",
    "services": ["Emergency Care", "General Consultation", "Diagnostics"],
    "phone": "09062968351",
    "openingHours": "24/7",
    "imageUrl": "https://placehold.co/600x400.png",
    "dataAiHint": "medical center"
  },
  {
    "id": "rs-256",
    "name": "Jesolz eye center",
    "address": "Plot 130 Rumuogba Housing Etstate, Old Aba Road, Opposite Miniokoro Police Station, Port-Harcourt, Rivers state",
    "coordinates": { "lat": 4.839, "lng": 7.043 },
    "type": "Optical Center",
    "services": ["Eye Examination", "Glasses", "Contact Lenses", "Vision Therapy"],
    "phone": "08064679145",
    "openingHours": "Mon-Sat 9am-6pm",
    "imageUrl": "https://placehold.co/600x400.png",
    "dataAiHint": "eye center"
  },
  {
    "id": "rs-257",
    "name": "Ranez Medical Consultants",
    "address": "18 Jessy and Jenny road off Peter Odili Tran-Amadi PortHarcourt",
    "coordinates": { "lat": 4.809, "lng": 7.059 },
    "type": "Hospital",
    "services": ["Specialist Consultation", "General Medicine", "Health Checkups"],
    "phone": "08129979837",
    "openingHours": "By Appointment",
    "imageUrl": "https://placehold.co/600x400.png",
    "dataAiHint": "medical consultant"
  },
  {
    "id": "rs-258",
    "name": "Almighty Favour Hospital",
    "address": "#1B RUKPAKWULUSHI JUNCTION, EAST/WEST ROAD BY ELIOZU FLYOVER PH.",
    "coordinates": { "lat": 4.872, "lng": 6.972 },
    "type": "Hospital",
    "services": ["Emergency Care", "General Consultation", "Maternity", "Surgery"],
    "phone": "08034036222",
    "openingHours": "24/7",
    "imageUrl": "https://placehold.co/600x400.png",
    "dataAiHint": "hospital building"
  },
  {
    "id": "rs-259",
    "name": "Patricare Hospital",
    "address": "48 Mgbuoshini road Agip Rumueme Port Harcourt",
    "coordinates": { "lat": 4.817, "lng": 6.997 },
    "type": "Hospital",
    "services": ["Emergency Care", "General Consultation", "Diagnostics", "Pharmacy"],
    "phone": "09165841103",
    "openingHours": "24/7",
    "imageUrl": "https://placehold.co/600x400.png",
    "dataAiHint": "hospital building"
  },
  {
    "id": "rs-260",
    "name": "Pretty Smile dental",
    "address": "18 Christy plaza NTA/Choba RD, Ozuoba by Bakery Junction Port Harcourt Rivers state, Nigeria",
    "coordinates": { "lat": 4.86, "lng": 6.96 },
    "type": "Dental Clinic",
    "services": ["Dental Checkup", "Teeth Cleaning", "Cosmetic Dentistry"],
    "phone": "08113332093",
    "openingHours": "Mon-Sat 9am-6pm",
    "imageUrl": "https://placehold.co/600x400.png",
    "dataAiHint": "dental clinic"
  }
]
